[{"id":"corp_L26000317759","signalType":"registration","businessName":"Old Town Trading Co. LLC","category":"LLC","detail":"New Florida business registered with the state","city":"","county":"","date":"2026-07-04","value":null,"phone":null,"sourceLabel":"FL Division of Corporations (Sunbiz)","lat":null,"lng":null},{"id":"corp_L26000317691","signalType":"registration","businessName":"Golden Bridge Health Solutions LLC","category":"LLC","detail":"New Florida business registered with the state","city":"","county":"","date":"2026-07-01","value":null,"phone":null,"sourceLabel":"FL Division of Corporations (Sunbiz)","lat":null,"lng":null},{"id":"corp_L26000317403","signalType":"registration","businessName":"Professional Stitches, LLC","category":"LLC","detail":"New Florida business registered with the state","city":"","county":"","date":"2026-07-01","value":null,"phone":null,"sourceLabel":"FL Division of Corporations (Sunbiz)","lat":null,"lng":null},{"id":"corp_L26000317355","signalType":"registration","businessName":"1667 Bravo Dr LLC","category":"LLC","detail":"New Florida business registered with the state","city":"","county":"","date":"2026-07-01","value":null,"phone":null,"sourceLabel":"FL Division of Corporations (Sunbiz)","lat":null,"lng":null},{"id":"corp_L26000317578","signalType":"registration","businessName":"Nu Energy Express LLC","category":"LLC","detail":"New Florida business registered with the state","city":"","county":"","date":"2026-07-01","value":null,"phone":null,"sourceLabel":"FL Division of Corporations (Sunbiz)","lat":null,"lng":null},{"id":"corp_L26000317709","signalType":"registration","businessName":"Dominguez Maintenance & Repair LLC","category":"LLC","detail":"New Florida business registered with the state","city":"","county":"","date":"2026-07-01","value":null,"phone":null,"sourceLabel":"FL Division of Corporations (Sunbiz)","lat":null,"lng":null},{"id":"corp_L26000317630","signalType":"registration","businessName":"Creek Life Home And Property Maintenance LLC","category":"LLC","detail":"New Florida business registered with the state","city":"","county":"","date":"2026-06-22","value":null,"phone":null,"sourceLabel":"FL Division of Corporations (Sunbiz)","lat":null,"lng":null},{"id":"corp_L26000317418","signalType":"registration","businessName":"Ardc Limited Liability Company","category":"LLC","detail":"New Florida business registered with the state","city":"","county":"","date":"2026-06-22","value":null,"phone":null,"sourceLabel":"FL Division of Corporations (Sunbiz)","lat":null,"lng":null},{"id":"corp_L26000317422","signalType":"registration","businessName":"Kings Outdoor Services LLC","category":"LLC","detail":"New Florida business registered with the state","city":"","county":"","date":"2026-06-20","value":null,"phone":null,"sourceLabel":"FL Division of Corporations (Sunbiz)","lat":null,"lng":null},{"id":"corp_L26000317356","signalType":"registration","businessName":"Fitzgerald Events And Tents LLC","category":"LLC","detail":"New Florida business registered with the state","city":"","county":"","date":"2026-06-20","value":null,"phone":null,"sourceLabel":"FL Division of Corporations (Sunbiz)","lat":null,"lng":null},{"id":"corp_L26000317620","signalType":"registration","businessName":"Crumblcrafts Kitchen LLC","category":"LLC","detail":"New Florida business registered with the state","city":"","county":"","date":"2026-06-19","value":null,"phone":null,"sourceLabel":"FL Division of Corporations (Sunbiz)","lat":null,"lng":null},{"id":"corp_L26000317423","signalType":"registration","businessName":"Chapter 37 LLC","category":"LLC","detail":"New Florida business registered with the state","city":"","county":"","date":"2026-06-19","value":null,"phone":null,"sourceLabel":"FL Division of Corporations (Sunbiz)","lat":null,"lng":null},{"id":"corp_L26000317310","signalType":"registration","businessName":"Harvest Construction Solutions LLC","category":"LLC","detail":"New Florida business registered with the state","city":"","county":"","date":"2026-06-15","value":null,"phone":null,"sourceLabel":"FL Division of Corporations (Sunbiz)","lat":null,"lng":null},{"id":"corp_L26000317711","signalType":"registration","businessName":"Elite Sports Tax Advisory LLC","category":"LLC","detail":"New Florida business registered with the state","city":"","county":"","date":"2026-06-15","value":null,"phone":null,"sourceLabel":"FL Division of Corporations (Sunbiz)","lat":null,"lng":null},{"id":"corp_L26000317254","signalType":"registration","businessName":"Seabreeze Litigation & Admin Support Services, LLC","category":"LLC","detail":"New Florida business registered with the state","city":"","county":"","date":"2026-06-15","value":null,"phone":null,"sourceLabel":"FL Division of Corporations (Sunbiz)","lat":null,"lng":null},{"id":"corp_L26000317664","signalType":"registration","businessName":"Gilgal Logistics LLC","category":"LLC","detail":"New Florida business registered with the state","city":"","county":"","date":"2026-06-15","value":null,"phone":null,"sourceLabel":"FL Division of Corporations (Sunbiz)","lat":null,"lng":null},{"id":"corp_L26000317397","signalType":"registration","businessName":"M44 Solutions LLC","category":"LLC","detail":"New Florida business registered with the state","city":"","county":"","date":"2026-06-15","value":null,"phone":null,"sourceLabel":"FL Division of Corporations (Sunbiz)","lat":null,"lng":null},{"id":"corp_L26000317308","signalType":"registration","businessName":"Summit Pro Solutions L.L.C.","category":"LLC","detail":"New Florida business registered with the state","city":"","county":"","date":"2026-06-15","value":null,"phone":null,"sourceLabel":"FL Division of Corporations (Sunbiz)","lat":null,"lng":null},{"id":"lic_FDACS50015","signalType":"retail_food","businessName":"Circle K # 8507","category":"Retail Food","detail":"Retail Food establishment · 813-910-6878","city":"Panama City Beach","county":"Bay","date":"2026-06-15","value":null,"phone":"813-910-6878","sourceLabel":"FDACS Division of Food Safety","lat":30.177661000000057,"lng":-85.80569999999994},{"id":"lic_FDACS50045","signalType":"retail_food","businessName":"Circle K # 8536","category":"Retail Food","detail":"Retail Food establishment · 813-910-6878","city":"Tampa","county":"Hillsborough","date":"2026-06-15","value":null,"phone":"813-910-6878","sourceLabel":"FDACS Division of Food Safety","lat":27.901490000000024,"lng":-82.40122999999994},{"id":"lic_FDACS50110","signalType":"retail_food","businessName":"B P C Bakery INC","category":"Retail Food","detail":"Retail Food establishment · 954-565-8555","city":"Fort Lauderdale","county":"Broward","date":"2026-06-15","value":null,"phone":"954-565-8555","sourceLabel":"FDACS Division of Food Safety","lat":26.14151000000004,"lng":-80.12090099999995},{"id":"lic_FDACS50148","signalType":"retail_food","businessName":"Tasty Pastry Bakery","category":"Retail Food","detail":"Retail Food establishment · 850-893-3752","city":"Tallahassee","county":"Leon","date":"2026-06-15","value":null,"phone":"850-893-3752","sourceLabel":"FDACS Division of Food Safety","lat":30.505850000000066,"lng":-84.25333999999998},{"id":"lic_FDACS50160","signalType":"retail_food","businessName":"Tom Thumb # 0123","category":"Retail Food","detail":"Retail Food establishment · 850-267-3962","city":"Santa Rosa Beach","county":"Walton","date":"2026-06-15","value":null,"phone":"850-267-3962","sourceLabel":"FDACS Division of Food Safety","lat":30.366161000000034,"lng":-86.18169399999994},{"id":"lic_FDACS50168","signalType":"retail_food","businessName":"Great American Natural Prod","category":"Retail Food","detail":"Retail Food establishment · 727-521-4372","city":"Saint Petersburg","county":"Pinellas","date":"2026-06-15","value":null,"phone":"727-521-4372","sourceLabel":"FDACS Division of Food Safety","lat":27.80976000000004,"lng":-82.65463999999997},{"id":"lic_FDACS50171","signalType":"retail_food","businessName":"Tony's Jiffy","category":"Retail Food","detail":"Retail Food establishment · 352-486-2131","city":"Bronson","county":"Levy","date":"2026-06-15","value":null,"phone":"352-486-2131","sourceLabel":"FDACS Division of Food Safety","lat":29.446358000000032,"lng":-82.64044199999995},{"id":"lic_FDACS50194","signalType":"retail_food","businessName":"Meat Land INC","category":"Retail Food","detail":"Retail Food establishment · 813-679-7340","city":"Tampa","county":"Hillsborough","date":"2026-06-15","value":null,"phone":"813-679-7340","sourceLabel":"FDACS Division of Food Safety","lat":27.994050000000072,"lng":-82.43506999999994},{"id":"lic_FDACS50202","signalType":"retail_food","businessName":"Walmart Supercenter #1083","category":"Retail Food","detail":"Retail Food establishment · 904-786-0390","city":"Jacksonville","county":"Duval","date":"2026-06-15","value":null,"phone":"904-786-0390","sourceLabel":"FDACS Division of Food Safety","lat":30.301879000000042,"lng":-81.76085599999999},{"id":"lic_FDACS50230","signalType":"retail_food","businessName":"Guido's Italian Market","category":"Retail Food","detail":"Retail Food establishment · 954-782-6003","city":"Pompano Beach","county":"Broward","date":"2026-06-15","value":null,"phone":"954-782-6003","sourceLabel":"FDACS Division of Food Safety","lat":26.210992000000033,"lng":-80.12211399999995},{"id":"lic_FDACS50243","signalType":"retail_food","businessName":"Circle K # 8814","category":"Retail Food","detail":"Retail Food establishment · 813-910-6878","city":"Fort Myers","county":"Lee","date":"2026-06-15","value":null,"phone":"813-910-6878","sourceLabel":"FDACS Division of Food Safety","lat":26.49292900000006,"lng":-81.96814499999994},{"id":"lic_FDACS50289","signalType":"retail_food","businessName":"Banyan Food Store","category":"Retail Food","detail":"Retail Food establishment · 305-467-0862","city":"Hollywood","county":"Broward","date":"2026-06-15","value":null,"phone":"305-467-0862","sourceLabel":"FDACS Division of Food Safety","lat":26.01066300000008,"lng":-80.20463799999999},{"id":"lic_FDACS50346","signalType":"retail_food","businessName":"Walmart #1171","category":"Retail Food","detail":"Retail Food establishment · 941-351-6969","city":"Sarasota","county":"Manatee","date":"2026-06-15","value":null,"phone":"941-351-6969","sourceLabel":"FDACS Division of Food Safety","lat":27.39185800000007,"lng":-82.50676499999997},{"id":"lic_FDACS50359","signalType":"retail_food","businessName":"Publix # 0348","category":"Retail Food","detail":"Retail Food establishment · 954-481-2266","city":"Deerfield Beach","county":"Broward","date":"2026-06-15","value":null,"phone":"954-481-2266","sourceLabel":"FDACS Division of Food Safety","lat":26.31765500000006,"lng":-80.15698399999997},{"id":"lic_FDACS50360","signalType":"retail_food","businessName":"Circle K # 8539","category":"Retail Food","detail":"Retail Food establishment · 813-910-6878","city":"Punta Gorda","county":"Charlotte","date":"2026-06-15","value":null,"phone":"813-910-6878","sourceLabel":"FDACS Division of Food Safety","lat":26.94143900000006,"lng":-82.03175699999997},{"id":"lic_FDACS50390","signalType":"retail_food","businessName":"Circle K # 8529","category":"Retail Food","detail":"Retail Food establishment · 813-910-6878","city":"Winter Garden","county":"Orange","date":"2026-06-15","value":null,"phone":"813-910-6878","sourceLabel":"FDACS Division of Food Safety","lat":28.55155300000007,"lng":-81.57572099999999},{"id":"lic_FDACS50419","signalType":"retail_food","businessName":"Platerotis Italian Gourmet","category":"Retail Food","detail":"Retail Food establishment · 727-461-1817","city":"Clearwater","county":"Pinellas","date":"2026-06-15","value":null,"phone":"727-461-1817","sourceLabel":"FDACS Division of Food Safety","lat":27.960350000000062,"lng":-82.76973999999996},{"id":"lic_FDACS50474","signalType":"retail_food","businessName":"Circle K # 7421","category":"Retail Food","detail":"Retail Food establishment · 813-910-6878","city":"Melbourne","county":"Brevard","date":"2026-06-15","value":null,"phone":"813-910-6878","sourceLabel":"FDACS Division of Food Safety","lat":28.07937000000004,"lng":-80.69963999999999},{"id":"lic_FDACS50479","signalType":"retail_food","businessName":"Circle K # 8613","category":"Retail Food","detail":"Retail Food establishment · 813-910-6878","city":"Orlando","county":"Orange","date":"2026-06-15","value":null,"phone":"813-910-6878","sourceLabel":"FDACS Division of Food Safety","lat":28.578534000000047,"lng":-81.41712599999994},{"id":"lic_FDACS50504","signalType":"retail_food","businessName":"Tom Thumb # 0013","category":"Retail Food","detail":"Retail Food establishment · 850-682-1561","city":"Crestview","county":"Okaloosa","date":"2026-06-15","value":null,"phone":"850-682-1561","sourceLabel":"FDACS Division of Food Safety","lat":30.79447300000004,"lng":-86.55793999999997},{"id":"lic_FDACS50540","signalType":"retail_food","businessName":"F A & M West Indian & American Groc","category":"Retail Food","detail":"Retail Food establishment · 305-653-2384","city":"Miami","county":"Miami-Dade","date":"2026-06-15","value":null,"phone":"305-653-2384","sourceLabel":"FDACS Division of Food Safety","lat":25.943930000000023,"lng":-80.20609099999996},{"id":"lic_FDACS50541","signalType":"retail_food","businessName":"Tom Thumb # 0062","category":"Retail Food","detail":"Retail Food establishment · 850-587-2846","city":"Molino","county":"Escambia","date":"2026-06-15","value":null,"phone":"850-587-2846","sourceLabel":"FDACS Division of Food Safety","lat":30.72651600000006,"lng":-87.34959599999996},{"id":"lic_FDACS50570","signalType":"retail_food","businessName":"Circle K # 8805","category":"Retail Food","detail":"Retail Food establishment · 813-910-6878","city":"Cape Coral","county":"Lee","date":"2026-06-15","value":null,"phone":"813-910-6878","sourceLabel":"FDACS Division of Food Safety","lat":26.619148000000052,"lng":-81.99073299999998},{"id":"lic_FDACS50582","signalType":"retail_food","businessName":"Circle K # 8703","category":"Retail Food","detail":"Retail Food establishment · 813-910-6878","city":"Winter Haven","county":"Polk","date":"2026-06-15","value":null,"phone":"813-910-6878","sourceLabel":"FDACS Division of Food Safety","lat":28.011700000000076,"lng":-81.72661999999997},{"id":"lic_FDACS50604","signalType":"retail_food","businessName":"Publix # 1373","category":"Retail Food","detail":"Retail Food establishment · 813-972-2784","city":"Tampa","county":"Hillsborough","date":"2026-06-15","value":null,"phone":"813-972-2784","sourceLabel":"FDACS Division of Food Safety","lat":28.100333000000035,"lng":-82.39908699999995},{"id":"lic_FDACS50650","signalType":"retail_food","businessName":"Circle K # 0279","category":"Retail Food","detail":"Retail Food establishment · 813-910-6878","city":"Lakeland","county":"Polk","date":"2026-06-15","value":null,"phone":"813-910-6878","sourceLabel":"FDACS Division of Food Safety","lat":28.02320000000003,"lng":-81.92479999999995},{"id":"lic_FDACS50656","signalType":"retail_food","businessName":"Continental Market","category":"Retail Food","detail":"Retail Food establishment · 954-565-2758","city":"Oakland Park","county":"Broward","date":"2026-06-15","value":null,"phone":"954-565-2758","sourceLabel":"FDACS Division of Food Safety","lat":26.17558800000006,"lng":-80.14669199999997},{"id":"lic_FDACS50683","signalType":"retail_food","businessName":"Circle K # 7488","category":"Retail Food","detail":"Retail Food establishment · 813-910-6878","city":"Naples","county":"Collier","date":"2026-06-15","value":null,"phone":"813-910-6878","sourceLabel":"FDACS Division of Food Safety","lat":26.191802000000052,"lng":-81.71875899999998},{"id":"lic_FDACS50716","signalType":"retail_food","businessName":"L. L. Lanier Tupelo Honey","category":"Retail Food","detail":"Retail Food establishment · 850-639-2371","city":"Wewahitchka","county":"Gulf","date":"2026-06-15","value":null,"phone":"850-639-2371","sourceLabel":"FDACS Division of Food Safety","lat":30.111953000000028,"lng":-85.19630899999999},{"id":"lic_FDACS50734","signalType":"retail_food","businessName":"Sedano's # 0020","category":"Retail Food","detail":"Retail Food establishment · 305-558-5073","city":"Hialeah","county":"Miami-Dade","date":"2026-06-15","value":null,"phone":"305-558-5073","sourceLabel":"FDACS Division of Food Safety","lat":25.942158000000063,"lng":-80.30490799999995},{"id":"lic_FDACS50766","signalType":"retail_food","businessName":"Winn Dixie # 2423","category":"Retail Food","detail":"Retail Food establishment · 813-988-4439","city":"Temple Terrace","county":"Hillsborough","date":"2026-06-15","value":null,"phone":"813-988-4439","sourceLabel":"FDACS Division of Food Safety","lat":28.03129000000007,"lng":-82.35498999999999},{"id":"lic_FDACS50768","signalType":"retail_food","businessName":"Circle K # 8626","category":"Retail Food","detail":"Retail Food establishment · 813-910-6878","city":"Tampa","county":"Hillsborough","date":"2026-06-15","value":null,"phone":"813-910-6878","sourceLabel":"FDACS Division of Food Safety","lat":28.010370000000023,"lng":-82.53231999999997},{"id":"lic_FDACS50775","signalType":"retail_food","businessName":"Tung Fong Oriental Market","category":"Retail Food","detail":"Retail Food establishment · 727-393-6877","city":"Seminole","county":"Pinellas","date":"2026-06-15","value":null,"phone":"727-393-6877","sourceLabel":"FDACS Division of Food Safety","lat":27.82493000000005,"lng":-82.78661999999997},{"id":"lic_FDACS50805","signalType":"retail_food","businessName":"Walgreens # 1938","category":"Retail Food","detail":"Retail Food establishment · 561-798-9048","city":"Royal Palm Beach","county":"Palm Beach","date":"2026-06-15","value":null,"phone":"561-798-9048","sourceLabel":"FDACS Division of Food Safety","lat":26.70851300000004,"lng":-80.22734099999997},{"id":"lic_FDACS50809","signalType":"retail_food","businessName":"Circle K # 8616","category":"Retail Food","detail":"Retail Food establishment · 813-910-6878","city":"Deltona","county":"Volusia","date":"2026-06-15","value":null,"phone":"813-910-6878","sourceLabel":"FDACS Division of Food Safety","lat":28.943890000000067,"lng":-81.22613999999999},{"id":"lic_FDACS50893","signalType":"retail_food","businessName":"Publix # 0361","category":"Retail Food","detail":"Retail Food establishment · 941-378-2111","city":"Sarasota","county":"Sarasota","date":"2026-06-15","value":null,"phone":"941-378-2111","sourceLabel":"FDACS Division of Food Safety","lat":27.297551000000055,"lng":-82.45412899999997},{"id":"lic_FDACS50955","signalType":"retail_food","businessName":"Winn Dixie # 2266","category":"Retail Food","detail":"Retail Food establishment · 407-339-1593","city":"Fern Park","county":"Seminole","date":"2026-06-15","value":null,"phone":"407-339-1593","sourceLabel":"FDACS Division of Food Safety","lat":28.652265000000057,"lng":-81.34857699999998},{"id":"lic_FDACS50978","signalType":"retail_food","businessName":"Florida Discount Beverage # 0002","category":"Retail Food","detail":"Retail Food establishment · 863-670-1045","city":"Bartow","county":"Polk","date":"2026-06-15","value":null,"phone":"863-670-1045","sourceLabel":"FDACS Division of Food Safety","lat":27.897992000000045,"lng":-81.82845699999996},{"id":"lic_FDACS51007","signalType":"retail_food","businessName":"La Fe Bakery","category":"Retail Food","detail":"Retail Food establishment · 863-421-7621","city":"Haines City","county":"Polk","date":"2026-06-15","value":null,"phone":"863-421-7621","sourceLabel":"FDACS Division of Food Safety","lat":28.109075000000075,"lng":-81.61812099999997},{"id":"lic_FDACS51008","signalType":"retail_food","businessName":"Baseball City Marathon","category":"Retail Food","detail":"Retail Food establishment · 863-424-5294","city":"Davenport","county":"Polk","date":"2026-06-15","value":null,"phone":"863-424-5294","sourceLabel":"FDACS Division of Food Safety","lat":28.231284000000073,"lng":-81.64965099999995},{"id":"lic_FDACS51039","signalType":"retail_food","businessName":"Walmart Supercenter #0857","category":"Retail Food","detail":"Retail Food establishment · 407-321-1371","city":"Sanford","county":"Seminole","date":"2026-06-15","value":null,"phone":"407-321-1371","sourceLabel":"FDACS Division of Food Safety","lat":28.760028000000034,"lng":-81.28223299999996},{"id":"lic_FDACS51061","signalType":"retail_food","businessName":"Circle K # 5165","category":"Retail Food","detail":"Retail Food establishment · 813-910-6878","city":"Tallahassee","county":"Leon","date":"2026-06-15","value":null,"phone":"813-910-6878","sourceLabel":"FDACS Division of Food Safety","lat":30.508160000000032,"lng":-84.24964999999997},{"id":"lic_FDACS51096","signalType":"retail_food","businessName":"Costco # 0088","category":"Retail Food","detail":"Retail Food establishment · 425-416-5976","city":"Pompano Beach","county":"Broward","date":"2026-06-15","value":null,"phone":"425-416-5976","sourceLabel":"FDACS Division of Food Safety","lat":26.273540000000025,"lng":-80.14948999999996},{"id":"lic_FDACS51128","signalType":"retail_food","businessName":"Publix # 0369","category":"Retail Food","detail":"Retail Food establishment · 310-667-1093","city":"Boca Raton","county":"Palm Beach","date":"2026-06-15","value":null,"phone":"310-667-1093","sourceLabel":"FDACS Division of Food Safety","lat":26.41584000000006,"lng":-80.07625999999993},{"id":"lic_FDACS51134","signalType":"retail_food","businessName":"Merchandising Warehouse # 0002","category":"Retail Food","detail":"Retail Food establishment · 407-828-3038","city":"Lake Buena Vista","county":"Orange","date":"2026-06-15","value":null,"phone":"407-828-3038","sourceLabel":"FDACS Division of Food Safety","lat":28.39248900000007,"lng":-81.52815199999998},{"id":"lic_FDACS51206","signalType":"retail_food","businessName":"Presidente Supermarket","category":"Retail Food","detail":"Retail Food establishment · 305-557-6466","city":"Hialeah","county":"Miami-Dade","date":"2026-06-15","value":null,"phone":"305-557-6466","sourceLabel":"FDACS Division of Food Safety","lat":25.89758000000006,"lng":-80.31445099999996},{"id":"lic_FDACS51207","signalType":"retail_food","businessName":"Tom Thumb # 0067","category":"Retail Food","detail":"Retail Food establishment · 850-455-2767","city":"Pensacola","county":"Escambia","date":"2026-06-15","value":null,"phone":"850-455-2767","sourceLabel":"FDACS Division of Food Safety","lat":30.418299000000047,"lng":-87.27514299999996},{"id":"lic_FDACS51224","signalType":"retail_food","businessName":"Ludlam Shell Food Mart","category":"Retail Food","detail":"Retail Food establishment · 305-984-6520","city":"Miami","county":"Miami-Dade","date":"2026-06-15","value":null,"phone":"305-984-6520","sourceLabel":"FDACS Division of Food Safety","lat":25.733843000000036,"lng":-80.30239799999998},{"id":"lic_FDACS51236","signalType":"retail_food","businessName":"Circle K # 8717","category":"Retail Food","detail":"Retail Food establishment · 813-910-6878","city":"Hollywood","county":"Broward","date":"2026-06-15","value":null,"phone":"813-910-6878","sourceLabel":"FDACS Division of Food Safety","lat":26.01868600000006,"lng":-80.14362399999999},{"id":"lic_FDACS51239","signalType":"retail_food","businessName":"Daily Bread","category":"Retail Food","detail":"Retail Food establishment · 305-253-6115","city":"Miami","county":"Miami-Dade","date":"2026-06-15","value":null,"phone":"305-253-6115","sourceLabel":"FDACS Division of Food Safety","lat":25.657760000000053,"lng":-80.32673999999997},{"id":"lic_FDACS51244","signalType":"retail_food","businessName":"Total Food Market","category":"Retail Food","detail":"Retail Food establishment · 954-942-5434","city":"Pompano Beach","county":"Broward","date":"2026-06-15","value":null,"phone":"954-942-5434","sourceLabel":"FDACS Division of Food Safety","lat":26.227130000000045,"lng":-80.12868999999995},{"id":"lic_FDACS51263","signalType":"retail_food","businessName":"Davis Fina Mart","category":"Retail Food","detail":"Retail Food establishment · 239-657-6188","city":"Immokalee","county":"Collier","date":"2026-06-15","value":null,"phone":"239-657-6188","sourceLabel":"FDACS Division of Food Safety","lat":26.418170000000032,"lng":-81.40860299999997},{"id":"lic_FDACS51295","signalType":"retail_food","businessName":"Jiffy Food Store # 0321","category":"Retail Food","detail":"Retail Food establishment · 386-935-2334","city":"O Brien","county":"Suwannee","date":"2026-06-15","value":null,"phone":"386-935-2334","sourceLabel":"FDACS Division of Food Safety","lat":29.99721900000003,"lng":-82.86280199999999},{"id":"lic_FDACS51313","signalType":"retail_food","businessName":"Walmart Supercenter #1219","category":"Retail Food","detail":"Retail Food establishment · 904-764-2855","city":"Jacksonville","county":"Duval","date":"2026-06-15","value":null,"phone":"904-764-2855","sourceLabel":"FDACS Division of Food Safety","lat":30.451193000000046,"lng":-81.70674799999995},{"id":"lic_FDACS51357","signalType":"retail_food","businessName":"Fisher Island Market","category":"Retail Food","detail":"Retail Food establishment · 305-535-6599","city":"Miami","county":"Miami-Dade","date":"2026-06-15","value":null,"phone":"305-535-6599","sourceLabel":"FDACS Division of Food Safety","lat":25.763648000000046,"lng":-80.14244299999996},{"id":"lic_FDACS51360","signalType":"retail_food","businessName":"S & M Food Market & Gas Station","category":"Retail Food","detail":"Retail Food establishment · 305-905-6050","city":"Miami","county":"Miami-Dade","date":"2026-06-15","value":null,"phone":"305-905-6050","sourceLabel":"FDACS Division of Food Safety","lat":25.809656000000075,"lng":-80.21138699999995},{"id":"lic_FDACS51435","signalType":"retail_food","businessName":"Wauchula Supermarket INC","category":"Retail Food","detail":"Retail Food establishment · 863-773-0965","city":"Wauchula","county":"Hardee","date":"2026-06-15","value":null,"phone":"863-773-0965","sourceLabel":"FDACS Division of Food Safety","lat":27.575386000000037,"lng":-81.81808599999994},{"id":"lic_FDACS51487","signalType":"retail_food","businessName":"Plaza Food","category":"Retail Food","detail":"Retail Food establishment · 352-347-6642","city":"Belleview","county":"Marion","date":"2026-06-15","value":null,"phone":"352-347-6642","sourceLabel":"FDACS Division of Food Safety","lat":29.054276000000073,"lng":-82.01231999999999},{"id":"lic_FDACS51536","signalType":"retail_food","businessName":"Winn Dixie # 2349","category":"Retail Food","detail":"Retail Food establishment · 772-464-9341","city":"Fort Pierce","county":"St. Lucie","date":"2026-06-15","value":null,"phone":"772-464-9341","sourceLabel":"FDACS Division of Food Safety","lat":27.522125000000074,"lng":-80.39667199999997},{"id":"lic_FDACS51666","signalType":"retail_food","businessName":"Circle K # 8615","category":"Retail Food","detail":"Retail Food establishment · 813-910-6878","city":"Orlando","county":"Orange","date":"2026-06-15","value":null,"phone":"813-910-6878","sourceLabel":"FDACS Division of Food Safety","lat":28.566438000000062,"lng":-81.29397699999998},{"id":"lic_FDACS51716","signalType":"retail_food","businessName":"Kwik Stop # 0044","category":"Retail Food","detail":"Retail Food establishment · 305-681-0625","city":"Opa Locka","county":"Miami-Dade","date":"2026-06-15","value":null,"phone":"305-681-0625","sourceLabel":"FDACS Division of Food Safety","lat":25.897452000000044,"lng":-80.24706099999997},{"id":"lic_FDACS51831","signalType":"retail_food","businessName":"Quick Way Food Store","category":"Retail Food","detail":"Retail Food establishment · 904-781-4124","city":"Jacksonville","county":"Duval","date":"2026-06-15","value":null,"phone":"904-781-4124","sourceLabel":"FDACS Division of Food Safety","lat":30.34359500000005,"lng":-81.71434599999998},{"id":"lic_FDACS51848","signalType":"retail_food","businessName":"Publix # 0372","category":"Retail Food","detail":"Retail Food establishment · 954-472-0018","city":"Davie","county":"Broward","date":"2026-06-15","value":null,"phone":"954-472-0018","sourceLabel":"FDACS Division of Food Safety","lat":26.116390000000024,"lng":-80.33260299999995},{"id":"lic_FDACS51871","signalType":"retail_food","businessName":"Cumberland Farms # 9748","category":"Retail Food","detail":"Retail Food establishment · 772-335-5764","city":"Port Saint Lucie","county":"St. Lucie","date":"2026-06-15","value":null,"phone":"772-335-5764","sourceLabel":"FDACS Division of Food Safety","lat":27.29306500000007,"lng":-80.28529199999997},{"id":"lic_FDACS51886","signalType":"retail_food","businessName":"Mickey's Of Hollywood","category":"Retail Food","detail":"Retail Food establishment · 407-828-3038","city":"Lake Buena Vista\r\n","county":"Orange","date":"2026-06-15","value":null,"phone":"407-828-3038","sourceLabel":"FDACS Division of Food Safety","lat":28.35378000000003,"lng":-81.55960399999998},{"id":"lic_FDACS51924","signalType":"retail_food","businessName":"Venture Out Community Store","category":"Retail Food","detail":"Retail Food establishment · 305-745-3743","city":"Cudjoe Key","county":"Monroe","date":"2026-06-15","value":null,"phone":"305-745-3743","sourceLabel":"FDACS Division of Food Safety","lat":24.653540000000078,"lng":-81.47476999999998},{"id":"lic_FDACS51932","signalType":"retail_food","businessName":"Nu-Mart","category":"Retail Food","detail":"Retail Food establishment · 305-226-6357","city":"Miami","county":"Miami-Dade","date":"2026-06-15","value":null,"phone":"305-226-6357","sourceLabel":"FDACS Division of Food Safety","lat":25.77544000000006,"lng":-80.36927499999996},{"id":"lic_FDACS51955","signalType":"retail_food","businessName":"Savannah Sweets","category":"Retail Food","detail":"Retail Food establishment · 904-825-0711","city":"Saint Augustine","county":"St. Johns","date":"2026-06-15","value":null,"phone":"904-825-0711","sourceLabel":"FDACS Division of Food Safety","lat":29.89541600000007,"lng":-81.31289599999997},{"id":"lic_FDACS51975","signalType":"retail_food","businessName":"Walgreens # 2230","category":"Retail Food","detail":"Retail Food establishment · 727-526-5769","city":"Saint Petersburg","county":"Pinellas","date":"2026-06-15","value":null,"phone":"727-526-5769","sourceLabel":"FDACS Division of Food Safety","lat":27.82146400000005,"lng":-82.64696599999996},{"id":"lic_FDACS51991","signalType":"retail_food","businessName":"Walmart Supercenter #1297","category":"Retail Food","detail":"Retail Food establishment · 479-360-3352","city":"Chiefland","county":"Levy","date":"2026-06-15","value":null,"phone":"479-360-3352","sourceLabel":"FDACS Division of Food Safety","lat":29.50240400000007,"lng":-82.86837199999997},{"id":"lic_FDACS52037","signalType":"retail_food","businessName":"M-Mouse Mercantile","category":"Retail Food","detail":"Retail Food establishment · 407-828-3038","city":"Lake Buena Vista","county":"Orange","date":"2026-06-15","value":null,"phone":"407-828-3038","sourceLabel":"FDACS Division of Food Safety","lat":28.41105600000003,"lng":-81.58814799999999},{"id":"lic_FDACS52038","signalType":"retail_food","businessName":"Fjording & The Puffins Roost","category":"Retail Food","detail":"Retail Food establishment · 407-560-4724","city":"Lake Buena Vista","county":"Orange","date":"2026-06-15","value":null,"phone":"407-560-4724","sourceLabel":"FDACS Division of Food Safety","lat":28.382640000000038,"lng":-81.55729999999994},{"id":"lic_FDACS52048","signalType":"retail_food","businessName":"Shell","category":"Retail Food","detail":"Retail Food establishment · 305-661-1895","city":"Kendall","county":"Miami-Dade","date":"2026-06-15","value":null,"phone":"305-661-1895","sourceLabel":"FDACS Division of Food Safety","lat":25.673565000000053,"lng":-80.31991899999997},{"id":"lic_FDACS52068","signalType":"retail_food","businessName":"Los Balkanes Bakery","category":"Retail Food","detail":"Retail Food establishment · 305-624-6611","city":"Miami Lakes","county":"Miami-Dade","date":"2026-06-15","value":null,"phone":"305-624-6611","sourceLabel":"FDACS Division of Food Safety","lat":25.92063500000006,"lng":-80.29283099999998},{"id":"lic_FDACS52072","signalType":"retail_food","businessName":"Modica Market","category":"Retail Food","detail":"Retail Food establishment · 850-231-1214","city":"Santa Rosa Beach","county":"Walton","date":"2026-06-15","value":null,"phone":"850-231-1214","sourceLabel":"FDACS Division of Food Safety","lat":30.320939000000067,"lng":-86.13566299999997},{"id":"lic_FDACS52080","signalType":"retail_food","businessName":"Mainzers German Foods","category":"Retail Food","detail":"Retail Food establishment · 305-251-2060","city":"Pinecrest","county":"Miami-Dade","date":"2026-06-15","value":null,"phone":"305-251-2060","sourceLabel":"FDACS Division of Food Safety","lat":25.657980000000066,"lng":-80.32666999999998},{"id":"lic_FDACS52114","signalType":"retail_food","businessName":"Publix # 0379","category":"Retail Food","detail":"Retail Food establishment · 407-831-2020","city":"Casselberry","county":"Seminole","date":"2026-06-15","value":null,"phone":"407-831-2020","sourceLabel":"FDACS Division of Food Safety","lat":28.67792600000007,"lng":-81.33602199999996},{"id":"lic_FDACS52126","signalType":"retail_food","businessName":"Walgreens # 2082","category":"Retail Food","detail":"Retail Food establishment · 954-946-4557","city":"Pompano Beach","county":"Broward","date":"2026-06-15","value":null,"phone":"954-946-4557","sourceLabel":"FDACS Division of Food Safety","lat":26.231254000000035,"lng":-80.09160099999997},{"id":"lic_FDACS52127","signalType":"retail_food","businessName":"Costco # 0093","category":"Retail Food","detail":"Retail Food establishment · 425-416-5976","city":"Palm Beach Gardens","county":"Palm Beach","date":"2026-06-15","value":null,"phone":"425-416-5976","sourceLabel":"FDACS Division of Food Safety","lat":26.807207000000062,"lng":-80.08762199999995},{"id":"lic_FDACS52135","signalType":"retail_food","businessName":"Singapore Sals","category":"Retail Food","detail":"Retail Food establishment · 407-828-3038","city":"Lake Buena Vista\r\n","county":"Orange","date":"2026-06-15","value":null,"phone":"407-828-3038","sourceLabel":"FDACS Division of Food Safety","lat":28.37004600000006,"lng":-81.53071299999993},{"id":"lic_FDACS52176","signalType":"retail_food","businessName":"Santiago Discount Store","category":"Retail Food","detail":"Retail Food establishment · 786-208-0927","city":"Miami","county":"Miami-Dade","date":"2026-06-15","value":null,"phone":"786-208-0927","sourceLabel":"FDACS Division of Food Safety","lat":25.80713700000007,"lng":-80.24815799999999},{"id":"lic_FDACS52207","signalType":"retail_food","businessName":"Winn Dixie # 0656","category":"Retail Food","detail":"Retail Food establishment · 941-795-4638","city":"Bradenton","county":"Manatee","date":"2026-06-15","value":null,"phone":"941-795-4638","sourceLabel":"FDACS Division of Food Safety","lat":27.46348000000006,"lng":-82.63491999999997},{"id":"lic_FDACS52277","signalType":"retail_food","businessName":"3b's Amoco","category":"Retail Food","detail":"Retail Food establishment · 863-687-9298","city":"Lakeland","county":"Polk","date":"2026-06-15","value":null,"phone":"863-687-9298","sourceLabel":"FDACS Division of Food Safety","lat":28.054725000000076,"lng":-81.98115499999994},{"id":"lic_FDACS52296","signalType":"retail_food","businessName":"Shannon Lake Enterprises INC.","category":"Retail Food","detail":"Retail Food establishment · 904-282-2973","city":"Middleburg","county":"Clay","date":"2026-06-15","value":null,"phone":"904-282-2973","sourceLabel":"FDACS Division of Food Safety","lat":30.09695400000004,"lng":-81.81017199999997},{"id":"lic_FDACS52308","signalType":"retail_food","businessName":"Sunnys Food Mart # 0002","category":"Retail Food","detail":"Retail Food establishment · 904-272-3182","city":"Orange Park","county":"Clay","date":"2026-06-15","value":null,"phone":"904-272-3182","sourceLabel":"FDACS Division of Food Safety","lat":30.17921400000006,"lng":-81.74124799999998},{"id":"lic_FDACS52318","signalType":"retail_food","businessName":"House Of Meats","category":"Retail Food","detail":"Retail Food establishment · 813-238-8594","city":"Tampa","county":"Hillsborough","date":"2026-06-15","value":null,"phone":"813-238-8594","sourceLabel":"FDACS Division of Food Safety","lat":28.010980000000075,"lng":-82.45499999999998},{"id":"lic_FDACS52324","signalType":"retail_food","businessName":"Five Flags Shell","category":"Retail Food","detail":"Retail Food establishment · 813-968-9228","city":"Tampa","county":"Hillsborough","date":"2026-06-15","value":null,"phone":"813-968-9228","sourceLabel":"FDACS Division of Food Safety","lat":28.10400100000004,"lng":-82.50177499999995},{"id":"lic_FDACS52364","signalType":"retail_food","businessName":"Fidalgo Shell","category":"Retail Food","detail":"Retail Food establishment · 305-871-7891","city":"Miami","county":"Miami-Dade","date":"2026-06-15","value":null,"phone":"305-871-7891","sourceLabel":"FDACS Division of Food Safety","lat":25.798834000000056,"lng":-80.26393399999995},{"id":"lic_FDACS52427","signalType":"retail_food","businessName":"Cumberland Farms # 9750","category":"Retail Food","detail":"Retail Food establishment · 321-383-2475","city":"Titusville","county":"Brevard","date":"2026-06-15","value":null,"phone":"321-383-2475","sourceLabel":"FDACS Division of Food Safety","lat":28.572930000000042,"lng":-80.84645499999993},{"id":"lic_FDACS52430","signalType":"retail_food","businessName":"Kings Supermarket","category":"Retail Food","detail":"Retail Food establishment · 407-397-2332","city":"Kissimmee","county":"Osceola","date":"2026-06-15","value":null,"phone":"407-397-2332","sourceLabel":"FDACS Division of Food Safety","lat":28.332990000000052,"lng":-81.58947999999998},{"id":"lic_FDACS52487","signalType":"retail_food","businessName":"Publix # 0386","category":"Retail Food","detail":"Retail Food establishment · 727-725-4900","city":"Clearwater","county":"Pinellas","date":"2026-06-15","value":null,"phone":"727-725-4900","sourceLabel":"FDACS Division of Food Safety","lat":27.980980000000045,"lng":-82.71050999999994},{"id":"lic_FDACS52502","signalType":"retail_food","businessName":"Racetrac # 0246","category":"Retail Food","detail":"Retail Food establishment · 407-720-1797","city":"Kissimmee","county":"Osceola","date":"2026-06-15","value":null,"phone":"407-720-1797","sourceLabel":"FDACS Division of Food Safety","lat":28.333389000000068,"lng":-81.52353899999997},{"id":"lic_FDACS52537","signalType":"retail_food","businessName":"Tropical Bakery INC","category":"Retail Food","detail":"Retail Food establishment · 561-439-2100","city":"Palm Springs","county":"Palm Beach","date":"2026-06-15","value":null,"phone":"561-439-2100","sourceLabel":"FDACS Division of Food Safety","lat":26.651377000000025,"lng":-80.10515499999997},{"id":"lic_FDACS52560","signalType":"retail_food","businessName":"Roque Gulf Service INC","category":"Retail Food","detail":"Retail Food establishment · 786-256-4912","city":"Miami","county":"Miami-Dade","date":"2026-06-15","value":null,"phone":"786-256-4912","sourceLabel":"FDACS Division of Food Safety","lat":25.801585000000046,"lng":-80.23139099999997},{"id":"lic_FDACS52582","signalType":"retail_food","businessName":"Pak United INC","category":"Retail Food","detail":"Retail Food establishment · 786-332-4484","city":"Hialeah","county":"Miami-Dade","date":"2026-06-15","value":null,"phone":"786-332-4484","sourceLabel":"FDACS Division of Food Safety","lat":25.770261000000062,"lng":-80.30384999999995},{"id":"lic_FDACS52584","signalType":"retail_food","businessName":"Karla Bakery","category":"Retail Food","detail":"Retail Food establishment · 786-703-1100","city":"Miami","county":"Miami-Dade","date":"2026-06-15","value":null,"phone":"786-703-1100","sourceLabel":"FDACS Division of Food Safety","lat":25.770210000000077,"lng":-80.30182999999994},{"id":"lic_FDACS52607","signalType":"retail_food","businessName":"Publix # 0371","category":"Retail Food","detail":"Retail Food establishment · 561-687-0445","city":"West Palm Beach","county":"Palm Beach","date":"2026-06-15","value":null,"phone":"561-687-0445","sourceLabel":"FDACS Division of Food Safety","lat":26.71996400000006,"lng":-80.11073699999997},{"id":"lic_FDACS52609","signalType":"retail_food","businessName":"St James General Store","category":"Retail Food","detail":"Retail Food establishment · 239-980-1833","city":"Saint James City","county":"Lee","date":"2026-06-15","value":null,"phone":"239-980-1833","sourceLabel":"FDACS Division of Food Safety","lat":26.508493000000044,"lng":-82.08248199999997},{"id":"lic_FDACS52627","signalType":"retail_food","businessName":"Publix # 0385","category":"Retail Food","detail":"Retail Food establishment · 772-778-9600","city":"Vero Beach","county":"Indian River","date":"2026-06-15","value":null,"phone":"772-778-9600","sourceLabel":"FDACS Division of Food Safety","lat":27.587898000000052,"lng":-80.37672299999997},{"id":"lic_FDACS52654","signalType":"retail_food","businessName":"Cho- Lon Oriental Market","category":"Retail Food","detail":"Retail Food establishment · 727-641-5606","city":"Saint Petersburg","county":"Pinellas","date":"2026-06-15","value":null,"phone":"727-641-5606","sourceLabel":"FDACS Division of Food Safety","lat":27.826190000000054,"lng":-82.67991999999998},{"id":"lic_FDACS52673","signalType":"retail_food","businessName":"Cafe Mozart","category":"Retail Food","detail":"Retail Food establishment · 727-521-1333","city":"Saint Petersburg","county":"Pinellas","date":"2026-06-15","value":null,"phone":"727-521-1333","sourceLabel":"FDACS Division of Food Safety","lat":27.83428200000003,"lng":-82.63908399999997},{"id":"lic_FDACS52675","signalType":"retail_food","businessName":"Aliana Meat Market INC","category":"Retail Food","detail":"Retail Food establishment · 813-237-4133","city":"Tampa","county":"Hillsborough","date":"2026-06-15","value":null,"phone":"813-237-4133","sourceLabel":"FDACS Division of Food Safety","lat":27.981700000000046,"lng":-82.43493799999999},{"id":"lic_FDACS52748","signalType":"retail_food","businessName":"Prosperity Shell","category":"Retail Food","detail":"Retail Food establishment · 561-863-2277","city":"Lake Park","county":"Palm Beach","date":"2026-06-15","value":null,"phone":"561-863-2277","sourceLabel":"FDACS Division of Food Safety","lat":26.808365000000038,"lng":-80.07415099999997},{"id":"lic_FDACS52754","signalType":"retail_food","businessName":"Winn Dixie # 0743","category":"Retail Food","detail":"Retail Food establishment · 239-455-3244","city":"Naples","county":"Collier","date":"2026-06-15","value":null,"phone":"239-455-3244","sourceLabel":"FDACS Division of Food Safety","lat":26.182042000000024,"lng":-81.70721999999995},{"id":"lic_FDACS52769","signalType":"retail_food","businessName":"Gateway Gifts","category":"Retail Food","detail":"Retail Food establishment · 407-560-4724","city":"Lake Buena Vista\r\n","county":"Orange","date":"2026-06-15","value":null,"phone":"407-560-4724","sourceLabel":"FDACS Division of Food Safety","lat":28.382647000000077,"lng":-81.55730499999999},{"id":"lic_FDACS52772","signalType":"retail_food","businessName":"Sam's Club # 8130","category":"Retail Food","detail":"Retail Food establishment · 239-939-2442","city":"Fort Myers","county":"Lee","date":"2026-06-15","value":null,"phone":"239-939-2442","sourceLabel":"FDACS Division of Food Safety","lat":26.585360000000037,"lng":-81.87398999999994},{"id":"lic_FDACS52783","signalType":"retail_food","businessName":"Sam's Club # 8141","category":"Retail Food","detail":"Retail Food establishment · 321-768-8190","city":"Melbourne","county":"Brevard","date":"2026-06-15","value":null,"phone":"321-768-8190","sourceLabel":"FDACS Division of Food Safety","lat":28.078770000000077,"lng":-80.69578999999999},{"id":"lic_FDACS52785","signalType":"retail_food","businessName":"Circle K # 8534","category":"Retail Food","detail":"Retail Food establishment · 813-910-6878","city":"Sunrise","county":"Broward","date":"2026-06-15","value":null,"phone":"813-910-6878","sourceLabel":"FDACS Division of Food Safety","lat":26.104070000000036,"lng":-80.36201699999998},{"id":"lic_FDACS52831","signalType":"retail_food","businessName":"Texaco Food Mart # 7593","category":"Retail Food","detail":"Retail Food establishment · 352-628-0667","city":"Homosassa","county":"Citrus","date":"2026-06-15","value":null,"phone":"352-628-0667","sourceLabel":"FDACS Division of Food Safety","lat":28.80435200000005,"lng":-82.56096499999995},{"id":"lic_FDACS52836","signalType":"retail_food","businessName":"Jiffy Food Store # 0324","category":"Retail Food","detail":"Retail Food establishment · 386-294-1166","city":"Mayo","county":"Lafayette","date":"2026-06-15","value":null,"phone":"386-294-1166","sourceLabel":"FDACS Division of Food Safety","lat":30.128730000000076,"lng":-83.29297999999994},{"id":"lic_FDACS52885","signalType":"retail_food","businessName":"L F Service Sta","category":"Retail Food","detail":"Retail Food establishment · 305-863-9087","city":"Medley","county":"Miami-Dade","date":"2026-06-15","value":null,"phone":"305-863-9087","sourceLabel":"FDACS Division of Food Safety","lat":25.879698000000076,"lng":-80.35872999999998},{"id":"lic_FDACS52897","signalType":"retail_food","businessName":"The Honey Baked Ham Co # 0304","category":"Retail Food","detail":"Retail Food establishment · 954-563-2331","city":"Fort Lauderdale","county":"Broward","date":"2026-06-15","value":null,"phone":"954-563-2331","sourceLabel":"FDACS Division of Food Safety","lat":26.151038000000028,"lng":-80.11982699999999},{"id":"lic_FDACS52901","signalType":"retail_food","businessName":"The Honey Baked Ham Co # 0308","category":"Retail Food","detail":"Retail Food establishment · 561-478-0555","city":"West Palm Beach","county":"Palm Beach","date":"2026-06-15","value":null,"phone":"561-478-0555","sourceLabel":"FDACS Division of Food Safety","lat":26.707280000000026,"lng":-80.11252099999996},{"id":"lic_FDACS52933","signalType":"retail_food","businessName":"Publix # 0388","category":"Retail Food","detail":"Retail Food establishment · 561-498-2221","city":"Delray Beach","county":"Palm Beach","date":"2026-06-15","value":null,"phone":"561-498-2221","sourceLabel":"FDACS Division of Food Safety","lat":26.45531600000004,"lng":-80.16138999999998},{"id":"lic_FDACS52955","signalType":"retail_food","businessName":"The Honey Baked Ham Co # 0307","category":"Retail Food","detail":"Retail Food establishment · 904-725-2025","city":"Jacksonville","county":"Duval","date":"2026-06-15","value":null,"phone":"904-725-2025","sourceLabel":"FDACS Division of Food Safety","lat":30.32068000000004,"lng":-81.55690999999996},{"id":"lic_FDACS52963","signalType":"retail_food","businessName":"The Short Stop","category":"Retail Food","detail":"Retail Food establishment · 352-377-2133","city":"Gainesville","county":"Alachua","date":"2026-06-15","value":null,"phone":"352-377-2133","sourceLabel":"FDACS Division of Food Safety","lat":29.686153000000047,"lng":-82.29107699999997},{"id":"lic_FDACS52971","signalType":"retail_food","businessName":"Winn Dixie # 2244","category":"Retail Food","detail":"Retail Food establishment · 386-439-4301","city":"Palm Coast","county":"Flagler","date":"2026-06-15","value":null,"phone":"386-439-4301","sourceLabel":"FDACS Division of Food Safety","lat":29.474575000000073,"lng":-81.17984599999994},{"id":"lic_FDACS52976","signalType":"retail_food","businessName":"Gate # 1187","category":"Retail Food","detail":"Retail Food establishment · 904-645-6167","city":"Jacksonville","county":"Duval","date":"2026-06-15","value":null,"phone":"904-645-6167","sourceLabel":"FDACS Division of Food Safety","lat":30.218975000000057,"lng":-81.55102499999998},{"id":"lic_FDACS53021","signalType":"retail_food","businessName":"Winn Dixie # 0501","category":"Retail Food","detail":"Retail Food establishment · 850-939-5267","city":"Navarre","county":"Santa Rosa","date":"2026-06-15","value":null,"phone":"850-939-5267","sourceLabel":"FDACS Division of Food Safety","lat":30.402820000000077,"lng":-86.86005999999998},{"id":"lic_FDACS53034","signalType":"retail_food","businessName":"Food Spot # 0059","category":"Retail Food","detail":"Retail Food establishment · 305-220-3669","city":"Miami","county":"Miami-Dade","date":"2026-06-15","value":null,"phone":"305-220-3669","sourceLabel":"FDACS Division of Food Safety","lat":25.730140000000063,"lng":-80.40262999999999},{"id":"lic_FDACS53035","signalType":"retail_food","businessName":"Publix # 0375","category":"Retail Food","detail":"Retail Food establishment · 305-552-8733","city":"Miami","county":"Miami-Dade","date":"2026-06-15","value":null,"phone":"305-552-8733","sourceLabel":"FDACS Division of Food Safety","lat":25.755420000000072,"lng":-80.36656999999997},{"id":"lic_FDACS53067","signalType":"retail_food","businessName":"Walmart #1374","category":"Retail Food","detail":"Retail Food establishment · 407-774-9966","city":"Altamonte Springs","county":"Seminole","date":"2026-06-15","value":null,"phone":"407-774-9966","sourceLabel":"FDACS Division of Food Safety","lat":28.660784000000035,"lng":-81.41916199999997},{"id":"lic_FDACS53081","signalType":"retail_food","businessName":"Walgreens # 2284","category":"Retail Food","detail":"Retail Food establishment · 321-799-9112","city":"Cocoa Beach","county":"Brevard","date":"2026-06-15","value":null,"phone":"321-799-9112","sourceLabel":"FDACS Division of Food Safety","lat":28.356670000000065,"lng":-80.60879999999997},{"id":"lic_FDACS53134","signalType":"retail_food","businessName":"Racetrac # 0377","category":"Retail Food","detail":"Retail Food establishment · 440-710-2227","city":"Saint Petersburg","county":"Pinellas","date":"2026-06-15","value":null,"phone":"440-710-2227","sourceLabel":"FDACS Division of Food Safety","lat":27.82149000000004,"lng":-82.66792999999996},{"id":"lic_FDACS53138","signalType":"retail_food","businessName":"The Honey Baked Ham Co # 0317","category":"Retail Food","detail":"Retail Food establishment · 904-272-0605","city":"Orange Park","county":"Clay","date":"2026-06-15","value":null,"phone":"904-272-0605","sourceLabel":"FDACS Division of Food Safety","lat":30.187898000000075,"lng":-81.73959699999995},{"id":"lic_FDACS53167","signalType":"retail_food","businessName":"Circle K # 8719","category":"Retail Food","detail":"Retail Food establishment · 813-910-6878","city":"Saint Cloud","county":"Osceola","date":"2026-06-15","value":null,"phone":"813-910-6878","sourceLabel":"FDACS Division of Food Safety","lat":28.245456000000047,"lng":-81.27644099999998},{"id":"lic_FDACS53183","signalType":"retail_food","businessName":"Baby Center Magic Kingdom","category":"Retail Food","detail":"Retail Food establishment · 407-828-3038","city":"Lake Buena Vista\r\n","county":"Orange","date":"2026-06-15","value":null,"phone":"407-828-3038","sourceLabel":"FDACS Division of Food Safety","lat":28.404750000000035,"lng":-81.57937299999998},{"id":"lic_FDACS53186","signalType":"retail_food","businessName":"Epcot Baby Service","category":"Retail Food","detail":"Retail Food establishment · 321-239-0869","city":"Lake Buena Vista\r\n","county":"Orange","date":"2026-06-15","value":null,"phone":"321-239-0869","sourceLabel":"FDACS Division of Food Safety","lat":28.382647000000077,"lng":-81.55730499999999},{"id":"lic_FDACS53203","signalType":"retail_food","businessName":"Naumis Enterprises","category":"Retail Food","detail":"Retail Food establishment · 954-292-2372","city":"Hollywood","county":"Broward","date":"2026-06-15","value":null,"phone":"954-292-2372","sourceLabel":"FDACS Division of Food Safety","lat":26.001288000000045,"lng":-80.20757199999997},{"id":"lic_FDACS53211","signalType":"retail_food","businessName":"Econfina River Resort","category":"Retail Food","detail":"Retail Food establishment · 850-584-2135","city":"Perry","county":"Taylor","date":"2026-06-15","value":null,"phone":"850-584-2135","sourceLabel":"FDACS Division of Food Safety","lat":30.172470000000033,"lng":-83.60933299999994},{"id":"lic_FDACS53216","signalType":"retail_food","businessName":"Delicias Colombianas","category":"Retail Food","detail":"Retail Food establishment · 305-382-3136","city":"Miami","county":"Miami-Dade","date":"2026-06-15","value":null,"phone":"305-382-3136","sourceLabel":"FDACS Division of Food Safety","lat":25.678920000000062,"lng":-80.41733999999997},{"id":"lic_FDACS53260","signalType":"retail_food","businessName":"Saigon Oriental Food Market","category":"Retail Food","detail":"Retail Food establishment · 561-568-6909","city":"Lake Park","county":"Palm Beach","date":"2026-06-15","value":null,"phone":"561-568-6909","sourceLabel":"FDACS Division of Food Safety","lat":26.798451000000057,"lng":-80.06965499999995},{"id":"lic_FDACS53282","signalType":"retail_food","businessName":"Walmart #1398","category":"Retail Food","detail":"Retail Food establishment · 561-642-6005","city":"Lake Worth","county":"Palm Beach","date":"2026-06-15","value":null,"phone":"561-642-6005","sourceLabel":"FDACS Division of Food Safety","lat":26.57430000000005,"lng":-80.11437999999998},{"id":"lic_FDACS53284","signalType":"retail_food","businessName":"Winn Dixie # 2230","category":"Retail Food","detail":"Retail Food establishment · 321-952-1680","city":"Palm Bay","county":"Brevard","date":"2026-06-15","value":null,"phone":"321-952-1680","sourceLabel":"FDACS Division of Food Safety","lat":27.99691000000007,"lng":-80.67433099999994},{"id":"lic_FDACS53313","signalType":"retail_food","businessName":"Beacon Service Station","category":"Retail Food","detail":"Retail Food establishment · 305-471-0501","city":"Doral","county":"Miami-Dade","date":"2026-06-15","value":null,"phone":"305-471-0501","sourceLabel":"FDACS Division of Food Safety","lat":25.783178000000078,"lng":-80.33176099999997},{"id":"lic_FDACS53389","signalType":"retail_food","businessName":"Jennings Citrus # 0500","category":"Retail Food","detail":"Retail Food establishment · 904-824-5140","city":"Jacksonville","county":"St. Johns","date":"2026-06-15","value":null,"phone":"904-824-5140","sourceLabel":"FDACS Division of Food Safety","lat":30.065327000000025,"lng":-81.49528199999997},{"id":"lic_FDACS53496","signalType":"retail_food","businessName":"Sam's Discount Food Store","category":"Retail Food","detail":"Retail Food establishment · 407-292-4292","city":"Apopka","county":"Orange","date":"2026-06-15","value":null,"phone":"407-292-4292","sourceLabel":"FDACS Division of Food Safety","lat":28.637692000000072,"lng":-81.45785599999994},{"id":"lic_FDACS53508","signalType":"retail_food","businessName":"Disney Planning Center And Gifts","category":"Retail Food","detail":"Retail Food establishment · 407-828-3038","city":"Lake Buena Vista","county":"Orange","date":"2026-06-15","value":null,"phone":"407-828-3038","sourceLabel":"FDACS Division of Food Safety","lat":28.364545000000078,"lng":-81.55859699999996},{"id":"lic_FDACS53529","signalType":"retail_food","businessName":"Tatooine Traders","category":"Retail Food","detail":"Retail Food establishment · 407-828-3038","city":"Lake Buena Vista\r\n","county":"Orange","date":"2026-06-15","value":null,"phone":"407-828-3038","sourceLabel":"FDACS Division of Food Safety","lat":28.35378000000003,"lng":-81.55960399999998},{"id":"lic_FDACS53530","signalType":"retail_food","businessName":"Peevey's Frozen Concoctions","category":"Retail Food","detail":"Retail Food establishment · 407-828-3038","city":"Lake Buena Vista\r\n","county":"Orange","date":"2026-06-15","value":null,"phone":"407-828-3038","sourceLabel":"FDACS Division of Food Safety","lat":28.35378000000003,"lng":-81.55960399999998},{"id":"lic_FDACS53562","signalType":"retail_food","businessName":"Walmart Supercenter #1408","category":"Retail Food","detail":"Retail Food establishment · 850-574-3588","city":"Tallahassee","county":"Leon","date":"2026-06-15","value":null,"phone":"850-574-3588","sourceLabel":"FDACS Division of Food Safety","lat":30.461385000000064,"lng":-84.35903499999995},{"id":"lic_FDACS53565","signalType":"retail_food","businessName":"Bellamar Pharm Disc","category":"Retail Food","detail":"Retail Food establishment · 305-221-6060","city":"Miami","county":"Miami-Dade","date":"2026-06-15","value":null,"phone":"305-221-6060","sourceLabel":"FDACS Division of Food Safety","lat":25.768480000000068,"lng":-80.36431499999998},{"id":"lic_FDACS53578","signalType":"retail_food","businessName":"Brothers Supermkt","category":"Retail Food","detail":"Retail Food establishment · 305-248-0347","city":"Homestead","county":"Miami-Dade","date":"2026-06-15","value":null,"phone":"305-248-0347","sourceLabel":"FDACS Division of Food Safety","lat":25.465903000000026,"lng":-80.49014099999994},{"id":"lic_FDACS53629","signalType":"retail_food","businessName":"Kwik Pak Food Mart","category":"Retail Food","detail":"Retail Food establishment · 813-659-2114","city":"Dover","county":"Hillsborough","date":"2026-06-15","value":null,"phone":"813-659-2114","sourceLabel":"FDACS Division of Food Safety","lat":27.997205000000065,"lng":-82.20931699999994},{"id":"lic_FDACS53662","signalType":"retail_food","businessName":"Walmart Supercenter #1391","category":"Retail Food","detail":"Retail Food establishment · 386-760-7880","city":"Daytona Beach","county":"Volusia","date":"2026-06-15","value":null,"phone":"386-760-7880","sourceLabel":"FDACS Division of Food Safety","lat":29.173060000000078,"lng":-81.02988999999997},{"id":"lic_FDACS53703","signalType":"retail_food","businessName":"Lira Chevron","category":"Retail Food","detail":"Retail Food establishment · 305-638-0903","city":"Miami","county":"Miami-Dade","date":"2026-06-15","value":null,"phone":"305-638-0903","sourceLabel":"FDACS Division of Food Safety","lat":25.809056000000055,"lng":-80.23161599999997},{"id":"lic_FDACS53741","signalType":"retail_food","businessName":"Walmart Supercenter #1362","category":"Retail Food","detail":"Retail Food establishment · 850-650-0341","city":"Destin","county":"Okaloosa","date":"2026-06-15","value":null,"phone":"850-650-0341","sourceLabel":"FDACS Division of Food Safety","lat":30.387690000000077,"lng":-86.44881099999998},{"id":"lic_FDACS53752","signalType":"retail_food","businessName":"Walgreens # 2214","category":"Retail Food","detail":"Retail Food establishment · 954-351-9103","city":"Fort Lauderdale","county":"Broward","date":"2026-06-15","value":null,"phone":"954-351-9103","sourceLabel":"FDACS Division of Food Safety","lat":26.191692000000046,"lng":-80.11058699999995},{"id":"lic_FDACS53869","signalType":"retail_food","businessName":"Sunshine Gasoline Dist","category":"Retail Food","detail":"Retail Food establishment · 239-261-4944","city":"Naples","county":"Collier","date":"2026-06-15","value":null,"phone":"239-261-4944","sourceLabel":"FDACS Division of Food Safety","lat":26.18639200000007,"lng":-81.79950699999995},{"id":"lic_FDACS53895","signalType":"retail_food","businessName":"Walmart Supercenter #1436","category":"Retail Food","detail":"Retail Food establishment · 561-966-3101","city":"Greenacres","county":"Palm Beach","date":"2026-06-15","value":null,"phone":"561-966-3101","sourceLabel":"FDACS Division of Food Safety","lat":26.65006900000003,"lng":-80.14241299999998},{"id":"lic_FDACS53924","signalType":"retail_food","businessName":"Sam's Club # 8151","category":"Retail Food","detail":"Retail Food establishment · 850-769-2222","city":"Panama City","county":"Bay","date":"2026-06-15","value":null,"phone":"850-769-2222","sourceLabel":"FDACS Division of Food Safety","lat":30.188168000000076,"lng":-85.68781999999999},{"id":"lic_FDACS53963","signalType":"retail_food","businessName":"Mobil Oil Corporation","category":"Retail Food","detail":"Retail Food establishment · 305-255-7650","city":"Miami","county":"Miami-Dade","date":"2026-06-15","value":null,"phone":"305-255-7650","sourceLabel":"FDACS Division of Food Safety","lat":25.62802700000003,"lng":-80.37495399999995},{"id":"lic_FDACS53968","signalType":"retail_food","businessName":"Oriente Pharmacy","category":"Retail Food","detail":"Retail Food establishment · 305-649-0064","city":"Miami","county":"Miami-Dade","date":"2026-06-15","value":null,"phone":"305-649-0064","sourceLabel":"FDACS Division of Food Safety","lat":25.775240000000053,"lng":-80.23889099999997},{"id":"lic_FDACS54009","signalType":"retail_food","businessName":"Lake Como Express Mart # 0197","category":"Retail Food","detail":"Retail Food establishment · 386-649-8519","city":"Crescent City","county":"Putnam","date":"2026-06-15","value":null,"phone":"386-649-8519","sourceLabel":"FDACS Division of Food Safety","lat":29.484610000000032,"lng":-81.56576099999995},{"id":"lic_FDACS54044","signalType":"retail_food","businessName":"Winn Dixie # 2487","category":"Retail Food","detail":"Retail Food establishment · 813-782-6465","city":"Zephyrhills","county":"Pasco","date":"2026-06-15","value":null,"phone":"813-782-6465","sourceLabel":"FDACS Division of Food Safety","lat":28.25284400000004,"lng":-82.17268499999994},{"id":"lic_FDACS54122","signalType":"retail_food","businessName":"University Shell South","category":"Retail Food","detail":"Retail Food establishment · 305-303-4210","city":"Miami","county":"Miami-Dade","date":"2026-06-15","value":null,"phone":"305-303-4210","sourceLabel":"FDACS Division of Food Safety","lat":25.754617000000053,"lng":-80.36771499999998},{"id":"lic_FDACS54143","signalType":"retail_food","businessName":"Primo Supermarket","category":"Retail Food","detail":"Retail Food establishment · 239-657-6759","city":"Immokalee","county":"Collier","date":"2026-06-15","value":null,"phone":"239-657-6759","sourceLabel":"FDACS Division of Food Safety","lat":26.429860000000076,"lng":-81.41944999999998},{"id":"lic_FDACS54151","signalType":"retail_food","businessName":"Walgreens # 2193","category":"Retail Food","detail":"Retail Food establishment · 954-474-7123","city":"Davie","county":"Broward","date":"2026-06-15","value":null,"phone":"954-474-7123","sourceLabel":"FDACS Division of Food Safety","lat":26.116364000000033,"lng":-80.33141399999994},{"id":"lic_FDACS54182","signalType":"retail_food","businessName":"Howland's Xpress","category":"Retail Food","detail":"Retail Food establishment · 386-362-1235","city":"Live Oak","county":"Suwannee","date":"2026-06-15","value":null,"phone":"386-362-1235","sourceLabel":"FDACS Division of Food Safety","lat":30.290283000000045,"lng":-82.99396999999999},{"id":"lic_FDACS54234","signalType":"retail_food","businessName":"Radiant Super Kwik # 0002","category":"Retail Food","detail":"Retail Food establishment · 813-677-7196","city":"Gibsonton","county":"Hillsborough","date":"2026-06-15","value":null,"phone":"813-677-7196","sourceLabel":"FDACS Division of Food Safety","lat":27.849450000000047,"lng":-82.36521999999997},{"id":"lic_FDACS54251","signalType":"retail_food","businessName":"Walgreens # 2129","category":"Retail Food","detail":"Retail Food establishment · 305-935-5578","city":"Sunny Isles Beach","county":"Miami-Dade","date":"2026-06-15","value":null,"phone":"305-935-5578","sourceLabel":"FDACS Division of Food Safety","lat":25.93789400000003,"lng":-80.12260499999996},{"id":"lic_FDACS54265","signalType":"retail_food","businessName":"Walgreens # 2416","category":"Retail Food","detail":"Retail Food establishment · 305-553-8273","city":"Miami","county":"Miami-Dade","date":"2026-06-15","value":null,"phone":"305-553-8273","sourceLabel":"FDACS Division of Food Safety","lat":25.732538000000034,"lng":-80.36656899999997},{"id":"lic_FDACS54301","signalType":"retail_food","businessName":"A And A Discount Beverage And Food","category":"Retail Food","detail":"Retail Food establishment · 954-464-8790","city":"Fort Pierce","county":"St. Lucie","date":"2026-06-15","value":null,"phone":"954-464-8790","sourceLabel":"FDACS Division of Food Safety","lat":27.42602800000003,"lng":-80.33085499999999},{"id":"lic_FDACS54347","signalType":"retail_food","businessName":"A & J Optical Market","category":"Retail Food","detail":"Retail Food establishment · 305-541-7766","city":"Miami","county":"Miami-Dade","date":"2026-06-15","value":null,"phone":"305-541-7766","sourceLabel":"FDACS Division of Food Safety","lat":25.779554000000076,"lng":-80.23065899999995},{"id":"lic_FDACS54355","signalType":"retail_food","businessName":"Sunshine Food Mart # 0016","category":"Retail Food","detail":"Retail Food establishment · 321-848-6556","city":"Cocoa","county":"Brevard","date":"2026-06-15","value":null,"phone":"321-848-6556","sourceLabel":"FDACS Division of Food Safety","lat":28.360559000000023,"lng":-80.79184899999996},{"id":"lic_FDACS54408","signalType":"retail_food","businessName":"Walgreens # 2192","category":"Retail Food","detail":"Retail Food establishment · 352-666-2235","city":"Spring Hill","county":"Hernando","date":"2026-06-15","value":null,"phone":"352-666-2235","sourceLabel":"FDACS Division of Food Safety","lat":28.460495000000037,"lng":-82.53836299999995},{"id":"lic_FDACS54416","signalType":"retail_food","businessName":"Winn Dixie # 0507","category":"Retail Food","detail":"Retail Food establishment · 850-994-4240","city":"Pace","county":"Santa Rosa","date":"2026-06-15","value":null,"phone":"850-994-4240","sourceLabel":"FDACS Division of Food Safety","lat":30.603926000000058,"lng":-87.14653099999998},{"id":"lic_FDACS54451","signalType":"retail_food","businessName":"B Healthy","category":"Retail Food","detail":"Retail Food establishment · 352-854-4577","city":"Ocala","county":"Marion","date":"2026-06-15","value":null,"phone":"352-854-4577","sourceLabel":"FDACS Division of Food Safety","lat":29.079326000000037,"lng":-82.25954499999995},{"id":"lic_FDACS54473","signalType":"retail_food","businessName":"Cinotti's Bakery","category":"Retail Food","detail":"Retail Food establishment · 904-246-1728","city":"Jacksonville Beach","county":"Duval","date":"2026-06-15","value":null,"phone":"904-246-1728","sourceLabel":"FDACS Division of Food Safety","lat":30.301550000000077,"lng":-81.40603999999996},{"id":"lic_FDACS54477","signalType":"retail_food","businessName":"Winn Dixie # 2348","category":"Retail Food","detail":"Retail Food establishment · 772-340-0446","city":"Port Saint Lucie","county":"St. Lucie","date":"2026-06-15","value":null,"phone":"772-340-0446","sourceLabel":"FDACS Division of Food Safety","lat":27.275289000000043,"lng":-80.35499599999997},{"id":"lic_FDACS54486","signalType":"retail_food","businessName":"Publix # 0395","category":"Retail Food","detail":"Retail Food establishment · 727-576-5858","city":"Saint Petersburg","county":"Pinellas","date":"2026-06-15","value":null,"phone":"727-576-5858","sourceLabel":"FDACS Division of Food Safety","lat":27.868040000000065,"lng":-82.64483099999995},{"id":"lic_FDACS54569","signalType":"retail_food","businessName":"Publix # 0393","category":"Retail Food","detail":"Retail Food establishment · 904-262-5474","city":"Jacksonville","county":"Duval","date":"2026-06-15","value":null,"phone":"904-262-5474","sourceLabel":"FDACS Division of Food Safety","lat":30.173385000000053,"lng":-81.60370299999994},{"id":"lic_FDACS54599","signalType":"retail_food","businessName":"Melbourne Bch Supermarket","category":"Retail Food","detail":"Retail Food establishment · 321-676-5225","city":"Melbourne Beach","county":"Brevard","date":"2026-06-15","value":null,"phone":"321-676-5225","sourceLabel":"FDACS Division of Food Safety","lat":28.068795000000023,"lng":-80.55932299999995},{"id":"lic_FDACS54628","signalType":"retail_food","businessName":"Costco # 0091","category":"Retail Food","detail":"Retail Food establishment · 425-313-8100","city":"Davie","county":"Broward","date":"2026-06-15","value":null,"phone":"425-313-8100","sourceLabel":"FDACS Division of Food Safety","lat":26.096730000000036,"lng":-80.24792599999995},{"id":"lic_FDACS54638","signalType":"retail_food","businessName":"Publix # 0148","category":"Retail Food","detail":"Retail Food establishment · 941-377-4405","city":"Sarasota","county":"Sarasota","date":"2026-06-15","value":null,"phone":"941-377-4405","sourceLabel":"FDACS Division of Food Safety","lat":27.33809000000008,"lng":-82.46154299999995},{"id":"lic_FDACS54651","signalType":"retail_food","businessName":"Florida Orange Groves # 0001","category":"Retail Food","detail":"Retail Food establishment · 727-347-4025","city":"South Pasadena","county":"Pinellas","date":"2026-06-15","value":null,"phone":"727-347-4025","sourceLabel":"FDACS Division of Food Safety","lat":27.752894000000026,"lng":-82.73783299999997},{"id":"lic_FDACS54661","signalType":"retail_food","businessName":"Alpine Truck Stop INC","category":"Retail Food","detail":"Retail Food establishment · 813-254-4011","city":"Tampa","county":"Hillsborough","date":"2026-06-15","value":null,"phone":"813-254-4011","sourceLabel":"FDACS Division of Food Safety","lat":27.95665900000006,"lng":-82.48232499999995},{"id":"lic_FDACS54701","signalType":"retail_food","businessName":"Winn Dixie # 2548","category":"Retail Food","detail":"Retail Food establishment · 863-465-0416","city":"Lake Placid","county":"Highlands","date":"2026-06-15","value":null,"phone":"863-465-0416","sourceLabel":"FDACS Division of Food Safety","lat":27.266275000000064,"lng":-81.34601799999996},{"id":"lic_FDACS54704","signalType":"retail_food","businessName":"Dunkin Donuts # 7307","category":"Retail Food","detail":"Retail Food establishment · 954-938-9066","city":"Fort Lauderdale","county":"Broward","date":"2026-06-15","value":null,"phone":"954-938-9066","sourceLabel":"FDACS Division of Food Safety","lat":26.188120000000026,"lng":-80.15795999999995},{"id":"lic_FDACS54754","signalType":"retail_food","businessName":"Walmart #1511","category":"Retail Food","detail":"Retail Food establishment · 954-433-9300","city":"Miramar","county":"Broward","date":"2026-06-15","value":null,"phone":"954-433-9300","sourceLabel":"FDACS Division of Food Safety","lat":25.99287000000004,"lng":-80.24954999999994},{"id":"lic_FDACS54755","signalType":"retail_food","businessName":"Publix # 0396","category":"Retail Food","detail":"Retail Food establishment · 954-680-1900","city":"Davie","county":"Broward","date":"2026-06-15","value":null,"phone":"954-680-1900","sourceLabel":"FDACS Division of Food Safety","lat":26.06004500000006,"lng":-80.34763499999997},{"id":"lic_FDACS54779","signalType":"retail_food","businessName":"Okeechobee Union Corporation","category":"Retail Food","detail":"Retail Food establishment · 305-821-7384","city":"Hialeah","county":"Miami-Dade","date":"2026-06-15","value":null,"phone":"305-821-7384","sourceLabel":"FDACS Division of Food Safety","lat":25.852964000000043,"lng":-80.32035999999994},{"id":"lic_FDACS54809","signalType":"retail_food","businessName":"The Honey Baked Ham Co # 0318","category":"Retail Food","detail":"Retail Food establishment · 321-725-8899","city":"Melbourne","county":"Brevard","date":"2026-06-15","value":null,"phone":"321-725-8899","sourceLabel":"FDACS Division of Food Safety","lat":28.078110000000038,"lng":-80.64961999999997},{"id":"lic_FDACS54862","signalType":"retail_food","businessName":"La Excelente Health Foods","category":"Retail Food","detail":"Retail Food establishment · 863-675-3282","city":"Labelle","county":"Hendry","date":"2026-06-15","value":null,"phone":"863-675-3282","sourceLabel":"FDACS Division of Food Safety","lat":26.761960000000045,"lng":-81.43938499999996},{"id":"lic_FDACS54893","signalType":"retail_food","businessName":"The Honey Baked Ham Co # 0313","category":"Retail Food","detail":"Retail Food establishment · 727-726-0992","city":"Clearwater","county":"Pinellas","date":"2026-06-15","value":null,"phone":"727-726-0992","sourceLabel":"FDACS Division of Food Safety","lat":27.984992000000034,"lng":-82.73033699999996},{"id":"lic_FDACS54905","signalType":"retail_food","businessName":"A1a Food Store And Discount Beverage","category":"Retail Food","detail":"Retail Food establishment · 941-747-0432","city":"Bradenton","county":"Manatee","date":"2026-06-15","value":null,"phone":"941-747-0432","sourceLabel":"FDACS Division of Food Safety","lat":27.484300000000076,"lng":-82.57612999999998},{"id":"lic_FDACS54953","signalType":"retail_food","businessName":"La Panaderia Favorita","category":"Retail Food","detail":"Retail Food establishment · 305-245-0436","city":"Florida City","county":"Miami-Dade","date":"2026-06-15","value":null,"phone":"305-245-0436","sourceLabel":"FDACS Division of Food Safety","lat":25.447652000000062,"lng":-80.48139899999995},{"id":"lic_FDACS54988","signalType":"retail_food","businessName":"Davis & Davis Ent.","category":"Retail Food","detail":"Retail Food establishment · 904-259-1999","city":"Macclenny","county":"Baker","date":"2026-06-15","value":null,"phone":"904-259-1999","sourceLabel":"FDACS Division of Food Safety","lat":30.28126000000003,"lng":-82.13285799999994},{"id":"lic_FDACS54992","signalType":"retail_food","businessName":"American Latin Market","category":"Retail Food","detail":"Retail Food establishment · 561-734-0092","city":"Boynton Beach","county":"Palm Beach","date":"2026-06-15","value":null,"phone":"561-734-0092","sourceLabel":"FDACS Division of Food Safety","lat":26.529206000000045,"lng":-80.06854899999996},{"id":"lic_FDACS55012","signalType":"retail_food","businessName":"Publix # 0401","category":"Retail Food","detail":"Retail Food establishment · 561-743-7400","city":"Jupiter","county":"Palm Beach","date":"2026-06-15","value":null,"phone":"561-743-7400","sourceLabel":"FDACS Division of Food Safety","lat":26.93300400000004,"lng":-80.07847499999997},{"id":"lic_FDACS55062","signalType":"retail_food","businessName":"Mivial INC Mobil","category":"Retail Food","detail":"Retail Food establishment · 305-461-4878","city":"Coconut Grove","county":"Miami-Dade","date":"2026-06-15","value":null,"phone":"305-461-4878","sourceLabel":"FDACS Division of Food Safety","lat":25.73538700000006,"lng":-80.24962799999997},{"id":"lic_FDACS55065","signalType":"retail_food","businessName":"Dadeland Shell","category":"Retail Food","detail":"Retail Food establishment · 305-666-0414","city":"Miami","county":"Miami-Dade","date":"2026-06-15","value":null,"phone":"305-666-0414","sourceLabel":"FDACS Division of Food Safety","lat":25.695750000000032,"lng":-80.29940999999997},{"id":"lic_FDACS55087","signalType":"retail_food","businessName":"Publix # 0398","category":"Retail Food","detail":"Retail Food establishment · 813-265-3288","city":"Tampa","county":"Hillsborough","date":"2026-06-15","value":null,"phone":"813-265-3288","sourceLabel":"FDACS Division of Food Safety","lat":28.087319000000036,"lng":-82.50273099999998},{"id":"lic_FDACS55131","signalType":"retail_food","businessName":"Walmart Supercenter #1513","category":"Retail Food","detail":"Retail Food establishment · 727-784-8797","city":"Palm Harbor","county":"Pinellas","date":"2026-06-15","value":null,"phone":"727-784-8797","sourceLabel":"FDACS Division of Food Safety","lat":28.09510300000005,"lng":-82.74079799999998},{"id":"lic_FDACS55149","signalType":"retail_food","businessName":"Walmart Supercenter #1589","category":"Retail Food","detail":"Retail Food establishment · 561-495-8127","city":"Delray Beach","county":"Palm Beach","date":"2026-06-15","value":null,"phone":"561-495-8127","sourceLabel":"FDACS Division of Food Safety","lat":26.436360000000036,"lng":-80.12387899999999},{"id":"lic_FDACS55197","signalType":"retail_food","businessName":"17th And Dixie Union 76 LLC","category":"Retail Food","detail":"Retail Food establishment · 786-292-2409","city":"Miami","county":"Miami-Dade","date":"2026-06-15","value":null,"phone":"786-292-2409","sourceLabel":"FDACS Division of Food Safety","lat":25.74670100000003,"lng":-80.22137999999995},{"id":"lic_FDACS55206","signalType":"retail_food","businessName":"Tahir Mobil Mart","category":"Retail Food","detail":"Retail Food establishment · 786-499-0146","city":"Miami","county":"Miami-Dade","date":"2026-06-15","value":null,"phone":"786-499-0146","sourceLabel":"FDACS Division of Food Safety","lat":25.86879600000003,"lng":-80.21025199999997},{"id":"lic_FDACS55220","signalType":"retail_food","businessName":"Rodriguez Shell Service","category":"Retail Food","detail":"Retail Food establishment · 305-609-4744","city":"Miami","county":"Miami-Dade","date":"2026-06-15","value":null,"phone":"305-609-4744","sourceLabel":"FDACS Division of Food Safety","lat":25.809792000000073,"lng":-80.31373099999996},{"id":"lic_FDACS55243","signalType":"retail_food","businessName":"Welcome Food Store # 0003","category":"Retail Food","detail":"Retail Food establishment · 904-771-5532","city":"Jacksonville","county":"Duval","date":"2026-06-15","value":null,"phone":"904-771-5532","sourceLabel":"FDACS Division of Food Safety","lat":30.270588000000032,"lng":-81.74796499999997},{"id":"lic_FDACS55269","signalType":"retail_food","businessName":"Walgreens # 2292","category":"Retail Food","detail":"Retail Food establishment · 561-935-4765","city":"Boca Raton","county":"Palm Beach","date":"2026-06-15","value":null,"phone":"561-935-4765","sourceLabel":"FDACS Division of Food Safety","lat":26.340520000000026,"lng":-80.09122099999996},{"id":"lic_FDACS55331","signalType":"retail_food","businessName":"Four A Ashraf Halal INC","category":"Retail Food","detail":"Retail Food establishment · 954-445-9695","city":"Miami","county":"Miami-Dade","date":"2026-06-15","value":null,"phone":"954-445-9695","sourceLabel":"FDACS Division of Food Safety","lat":25.96611000000007,"lng":-80.20536999999996},{"id":"lic_FDACS55333","signalType":"retail_food","businessName":"Cumberland Farms # 9747","category":"Retail Food","detail":"Retail Food establishment · 772-664-8267","city":"Micco","county":"Brevard","date":"2026-06-15","value":null,"phone":"772-664-8267","sourceLabel":"FDACS Division of Food Safety","lat":27.877247000000068,"lng":-80.49969999999996},{"id":"lic_FDACS55358","signalType":"retail_food","businessName":"Dollar General # 2434","category":"Retail Food","detail":"Retail Food establishment · 615-855-4000","city":"New Port Richey","county":"Pasco","date":"2026-06-15","value":null,"phone":"615-855-4000","sourceLabel":"FDACS Division of Food Safety","lat":28.22336000000007,"lng":-82.72142099999996},{"id":"lic_FDACS55391","signalType":"retail_food","businessName":"Sam's Club # 8157","category":"Retail Food","detail":"Retail Food establishment · 561-687-0098","city":"West Palm Beach","county":"Palm Beach","date":"2026-06-15","value":null,"phone":"561-687-0098","sourceLabel":"FDACS Division of Food Safety","lat":26.761826000000042,"lng":-80.10515399999997},{"id":"lic_FDACS55403","signalType":"retail_food","businessName":"Quality Poultry & Seafood","category":"Retail Food","detail":"Retail Food establishment · 954-791-3324","city":"Lauderhill","county":"Broward","date":"2026-06-15","value":null,"phone":"954-791-3324","sourceLabel":"FDACS Division of Food Safety","lat":26.142702000000043,"lng":-80.20287199999996},{"id":"lic_FDACS55411","signalType":"retail_food","businessName":"Five Star Bakery","category":"Retail Food","detail":"Retail Food establishment · 954-484-7923","city":"Lauderdale Lakes","county":"Broward","date":"2026-06-15","value":null,"phone":"954-484-7923","sourceLabel":"FDACS Division of Food Safety","lat":26.178764000000058,"lng":-80.20331099999999},{"id":"lic_FDACS55435","signalType":"retail_food","businessName":"Publix # 0010","category":"Retail Food","detail":"Retail Food establishment · 305-266-0713","city":"Miami","county":"Miami-Dade","date":"2026-06-15","value":null,"phone":"305-266-0713","sourceLabel":"FDACS Division of Food Safety","lat":25.771288000000027,"lng":-80.33184899999998},{"id":"lic_FDACS55437","signalType":"retail_food","businessName":"Walgreens # 2184","category":"Retail Food","detail":"Retail Food establishment · 305-261-2214","city":"Miami","county":"Miami-Dade","date":"2026-06-15","value":null,"phone":"305-261-2214","sourceLabel":"FDACS Division of Food Safety","lat":25.769854000000066,"lng":-80.33080399999994},{"id":"lic_FDACS55466","signalType":"retail_food","businessName":"La Union 76 INC","category":"Retail Food","detail":"Retail Food establishment · 305-871-8181","city":"Virginia Gardens","county":"Miami-Dade","date":"2026-06-15","value":null,"phone":"305-871-8181","sourceLabel":"FDACS Division of Food Safety","lat":25.80787600000008,"lng":-80.28955599999995},{"id":"lic_FDACS55499","signalType":"retail_food","businessName":"Winn Dixie # 0652","category":"Retail Food","detail":"Retail Food establishment · 352-799-7700","city":"Brooksville","county":"Hernando","date":"2026-06-15","value":null,"phone":"352-799-7700","sourceLabel":"FDACS Division of Food Safety","lat":28.521677000000068,"lng":-82.22992399999998},{"id":"lic_FDACS55505","signalType":"retail_food","businessName":"Walmart #1501","category":"Retail Food","detail":"Retail Food establishment · 813-968-3544","city":"Tampa","county":"Hillsborough","date":"2026-06-15","value":null,"phone":"813-968-3544","sourceLabel":"FDACS Division of Food Safety","lat":28.085773000000074,"lng":-82.50330699999995},{"id":"lic_FDACS55558","signalType":"retail_food","businessName":"Azteca Mexican Store","category":"Retail Food","detail":"Retail Food establishment · 772-466-6547","city":"Fort Pierce","county":"St. Lucie","date":"2026-06-15","value":null,"phone":"772-466-6547","sourceLabel":"FDACS Division of Food Safety","lat":27.448214000000064,"lng":-80.35794599999997},{"id":"lic_FDACS55564","signalType":"retail_food","businessName":"Prime Stop Food Store # 1001","category":"Retail Food","detail":"Retail Food establishment · 904-765-4378","city":"Jacksonville","county":"Duval","date":"2026-06-15","value":null,"phone":"904-765-4378","sourceLabel":"FDACS Division of Food Safety","lat":30.39290100000005,"lng":-81.68039799999997},{"id":"lic_FDACS55591","signalType":"retail_food","businessName":"Publix # 0405","category":"Retail Food","detail":"Retail Food establishment · 407-293-7021","city":"Ocoee","county":"Orange","date":"2026-06-15","value":null,"phone":"407-293-7021","sourceLabel":"FDACS Division of Food Safety","lat":28.553085000000067,"lng":-81.50589899999994},{"id":"lic_FDACS55600","signalType":"retail_food","businessName":"Winn Dixie # 0317","category":"Retail Food","detail":"Retail Food establishment · 305-294-0491","city":"Key West","county":"Monroe","date":"2026-06-15","value":null,"phone":"305-294-0491","sourceLabel":"FDACS Division of Food Safety","lat":24.56593300000003,"lng":-81.77226799999994},{"id":"lic_FDACS55620","signalType":"retail_food","businessName":"Walgreens # 13920","category":"Retail Food","detail":"Retail Food establishment · 407-649-7859","city":"Orlando","county":"Orange","date":"2026-06-15","value":null,"phone":"407-649-7859","sourceLabel":"FDACS Division of Food Safety","lat":28.58105000000006,"lng":-81.38923999999997},{"id":"lic_FDACS55664","signalType":"retail_food","businessName":"Crescent Food Mart","category":"Retail Food","detail":"Retail Food establishment · 386-698-1113","city":"Crescent City","county":"Putnam","date":"2026-06-15","value":null,"phone":"386-698-1113","sourceLabel":"FDACS Division of Food Safety","lat":29.425061000000028,"lng":-81.51059599999996},{"id":"lic_FDACS55679","signalType":"retail_food","businessName":"Schaefer Drugs","category":"Retail Food","detail":"Retail Food establishment · 561-793-0151","city":"Wellington","county":"Palm Beach","date":"2026-06-15","value":null,"phone":"561-793-0151","sourceLabel":"FDACS Division of Food Safety","lat":26.672270000000026,"lng":-80.24903599999999},{"id":"lic_FDACS55713","signalType":"retail_food","businessName":"Daily's #1006","category":"Retail Food","detail":"Retail Food establishment · 904-860-5366","city":"Jacksonville","county":"Duval","date":"2026-06-15","value":null,"phone":"904-860-5366","sourceLabel":"FDACS Division of Food Safety","lat":30.352899000000036,"lng":-81.54960299999993},{"id":"lic_FDACS55730","signalType":"retail_food","businessName":"Gate # 1135","category":"Retail Food","detail":"Retail Food establishment · 904-743-6999","city":"Jacksonville","county":"Duval","date":"2026-06-15","value":null,"phone":"904-743-6999","sourceLabel":"FDACS Division of Food Safety","lat":30.35237900000004,"lng":-81.57715799999994},{"id":"lic_FDACS55757","signalType":"retail_food","businessName":"Winn Dixie # 0246","category":"Retail Food","detail":"Retail Food establishment · 305-625-6155","city":"Miami Gardens","county":"Miami-Dade","date":"2026-06-15","value":null,"phone":"305-625-6155","sourceLabel":"FDACS Division of Food Safety","lat":25.93153600000005,"lng":-80.24466699999994},{"id":"lic_FDACS55825","signalType":"retail_food","businessName":"Sam's Sunoco","category":"Retail Food","detail":"Retail Food establishment · 727-686-8869","city":"Saint Petersburg","county":"Pinellas","date":"2026-06-15","value":null,"phone":"727-686-8869","sourceLabel":"FDACS Division of Food Safety","lat":27.771389000000056,"lng":-82.65459599999997},{"id":"lic_FDACS55903","signalType":"retail_food","businessName":"First Coast Energy # 1004","category":"Retail Food","detail":"Retail Food establishment · 904-860-5366","city":"Jacksonville","county":"Duval","date":"2026-06-15","value":null,"phone":"904-860-5366","sourceLabel":"FDACS Division of Food Safety","lat":30.294850000000054,"lng":-81.77549999999997},{"id":"lic_FDACS55918","signalType":"retail_food","businessName":"Zans Power Mobil","category":"Retail Food","detail":"Retail Food establishment · 954-568-2312","city":"Wilton Manors","county":"Broward","date":"2026-06-15","value":null,"phone":"954-568-2312","sourceLabel":"FDACS Division of Food Safety","lat":26.166533000000072,"lng":-80.15499499999999},{"id":"lic_FDACS55924","signalType":"retail_food","businessName":"Stop & Shop Food Store # 0527","category":"Retail Food","detail":"Retail Food establishment · 954-467-8939","city":"Fort Lauderdale","county":"Broward","date":"2026-06-15","value":null,"phone":"954-467-8939","sourceLabel":"FDACS Division of Food Safety","lat":26.093566000000067,"lng":-80.14027199999998},{"id":"lic_FDACS55931","signalType":"retail_food","businessName":"Daily's # 1002","category":"Retail Food","detail":"Retail Food establishment · 904-860-5366","city":"Jacksonville","county":"Duval","date":"2026-06-15","value":null,"phone":"904-860-5366","sourceLabel":"FDACS Division of Food Safety","lat":30.28737300000006,"lng":-81.43825399999997},{"id":"lic_FDACS55963","signalType":"retail_food","businessName":"Midtown Mobil","category":"Retail Food","detail":"Retail Food establishment · 954-771-3840","city":"Fort Lauderdale","county":"Broward","date":"2026-06-15","value":null,"phone":"954-771-3840","sourceLabel":"FDACS Division of Food Safety","lat":26.19005800000008,"lng":-80.11020299999996},{"id":"lic_FDACS56016","signalType":"retail_food","businessName":"Sedano's Supermarket # 0021","category":"Retail Food","detail":"Retail Food establishment · 305-255-3386","city":"Miami","county":"Miami-Dade","date":"2026-06-15","value":null,"phone":"305-255-3386","sourceLabel":"FDACS Division of Food Safety","lat":25.626077000000066,"lng":-80.41663399999999},{"id":"lic_FDACS56057","signalType":"retail_food","businessName":"Publix # 0406","category":"Retail Food","detail":"Retail Food establishment · 954-425-0400","city":"Coconut Creek","county":"Broward","date":"2026-06-15","value":null,"phone":"954-425-0400","sourceLabel":"FDACS Division of Food Safety","lat":26.310592000000042,"lng":-80.20201899999995},{"id":"lic_FDACS56089","signalType":"retail_food","businessName":"Petrolake INC","category":"Retail Food","detail":"Retail Food establishment · 561-966-9840","city":"Lake Worth","county":"Palm Beach","date":"2026-06-15","value":null,"phone":"561-966-9840","sourceLabel":"FDACS Division of Food Safety","lat":26.589328000000023,"lng":-80.11377999999996},{"id":"lic_FDACS56092","signalType":"retail_food","businessName":"C Discount Beverage","category":"Retail Food","detail":"Retail Food establishment · 561-582-9244","city":"Lantana","county":"Palm Beach","date":"2026-06-15","value":null,"phone":"561-582-9244","sourceLabel":"FDACS Division of Food Safety","lat":26.572580000000073,"lng":-80.06300999999996},{"id":"lic_FDACS56098","signalType":"retail_food","businessName":"Winn Dixie # 0644","category":"Retail Food","detail":"Retail Food establishment · 727-943-8065","city":"Holiday","county":"Pasco","date":"2026-06-15","value":null,"phone":"727-943-8065","sourceLabel":"FDACS Division of Food Safety","lat":28.18323300000003,"lng":-82.73924799999998},{"id":"lic_FDACS56125","signalType":"retail_food","businessName":"Walgreens # 2524","category":"Retail Food","detail":"Retail Food establishment · 727-367-7657","city":"St Pete Beach","county":"Pinellas","date":"2026-06-15","value":null,"phone":"727-367-7657","sourceLabel":"FDACS Division of Food Safety","lat":27.743430000000046,"lng":-82.75008999999994},{"id":"lic_FDACS56192","signalType":"retail_food","businessName":"Heavenly Cheesecake And Chocolates","category":"Retail Food","detail":"Retail Food establishment · 386-673-6670","city":"Holly Hill","county":"Volusia","date":"2026-06-15","value":null,"phone":"386-673-6670","sourceLabel":"FDACS Division of Food Safety","lat":29.25121000000007,"lng":-81.04411999999996},{"id":"lic_FDACS56217","signalType":"retail_food","businessName":"Target # 0638","category":"Retail Food","detail":"Retail Food establishment · 561-483-3400","city":"Boca Raton","county":"Palm Beach","date":"2026-06-15","value":null,"phone":"561-483-3400","sourceLabel":"FDACS Division of Food Safety","lat":26.354923000000042,"lng":-80.20482799999996},{"id":"lic_FDACS56218","signalType":"retail_food","businessName":"Target # 0642","category":"Retail Food","detail":"Retail Food establishment · 561-265-3500","city":"Delray Beach","county":"Palm Beach","date":"2026-06-15","value":null,"phone":"561-265-3500","sourceLabel":"FDACS Division of Food Safety","lat":26.437475000000063,"lng":-80.08509899999996},{"id":"lic_FDACS56301","signalType":"retail_food","businessName":"Target # 0656","category":"Retail Food","detail":"Retail Food establishment · 813-972-3396","city":"Tampa","county":"Hillsborough","date":"2026-06-15","value":null,"phone":"813-972-3396","sourceLabel":"FDACS Division of Food Safety","lat":28.07218000000006,"lng":-82.42784299999994},{"id":"lic_FDACS56304","signalType":"retail_food","businessName":"Target # 0652","category":"Retail Food","detail":"Retail Food establishment · 727-786-6969","city":"Palm Harbor","county":"Pinellas","date":"2026-06-15","value":null,"phone":"727-786-6969","sourceLabel":"FDACS Division of Food Safety","lat":28.06288100000006,"lng":-82.70637699999997},{"id":"lic_FDACS56315","signalType":"retail_food","businessName":"Cvs Pharmacy # 04027","category":"Retail Food","detail":"Retail Food establishment · 401-770-5324","city":"Century","county":"Escambia","date":"2026-06-15","value":null,"phone":"401-770-5324","sourceLabel":"FDACS Division of Food Safety","lat":30.981329000000073,"lng":-87.25837699999994},{"id":"lic_FDACS56318","signalType":"retail_food","businessName":"Walmart #1482","category":"Retail Food","detail":"Retail Food establishment · 813-881-0402","city":"Tampa","county":"Hillsborough","date":"2026-06-15","value":null,"phone":"813-881-0402","sourceLabel":"FDACS Division of Food Safety","lat":28.026231000000053,"lng":-82.55987099999999},{"id":"lic_FDACS10224","signalType":"retail_food","businessName":"Shivm Food And General Store","category":"Retail Food","detail":"Retail Food establishment · 321-784-6652","city":"Cape Canaveral","county":"Brevard","date":"2026-06-15","value":null,"phone":"321-784-6652","sourceLabel":"FDACS Division of Food Safety","lat":28.38933000000003,"lng":-80.60520999999994},{"id":"lic_FDACS56372","signalType":"retail_food","businessName":"Costco # 0180","category":"Retail Food","detail":"Retail Food establishment · 425-416-5976","city":"Lantana","county":"Palm Beach","date":"2026-06-15","value":null,"phone":"425-416-5976","sourceLabel":"FDACS Division of Food Safety","lat":26.588520000000074,"lng":-80.07066999999995},{"id":"lic_FDACS56374","signalType":"retail_food","businessName":"Lawtey Shell","category":"Retail Food","detail":"Retail Food establishment · 904-782-3580","city":"Lawtey","county":"Bradford","date":"2026-06-15","value":null,"phone":"904-782-3580","sourceLabel":"FDACS Division of Food Safety","lat":30.04738800000007,"lng":-82.07088499999998},{"id":"lic_FDACS56401","signalType":"retail_food","businessName":"Walgreens # 2545","category":"Retail Food","detail":"Retail Food establishment · 305-949-3508","city":"Miami","county":"Miami-Dade","date":"2026-06-15","value":null,"phone":"305-949-3508","sourceLabel":"FDACS Division of Food Safety","lat":25.944590000000062,"lng":-80.17111999999997},{"id":"lic_FDACS56404","signalType":"retail_food","businessName":"Walgreens Liquor # 1532","category":"Retail Food","detail":"Retail Food establishment · 305-861-6742","city":"Miami","county":"Miami-Dade","date":"2026-06-15","value":null,"phone":"305-861-6742","sourceLabel":"FDACS Division of Food Safety","lat":25.85089700000003,"lng":-80.12063999999998},{"id":"lic_FDACS10358","signalType":"retail_food","businessName":"Walter Food Store INC","category":"Retail Food","detail":"Retail Food establishment · 321-752-6162","city":"Melbourne","county":"Brevard","date":"2026-06-15","value":null,"phone":"321-752-6162","sourceLabel":"FDACS Division of Food Safety","lat":28.110904000000062,"lng":-80.62140299999999},{"id":"lic_FDACS10362","signalType":"retail_food","businessName":"Walgreens # 3080","category":"Retail Food","detail":"Retail Food establishment · 321-723-4664","city":"Melbourne","county":"Brevard","date":"2026-06-15","value":null,"phone":"321-723-4664","sourceLabel":"FDACS Division of Food Safety","lat":28.09391800000003,"lng":-80.62108899999998},{"id":"lic_FDACS56432","signalType":"retail_food","businessName":"Target # 0649","category":"Retail Food","detail":"Retail Food establishment · 407-896-0401","city":"Orlando","county":"Orange","date":"2026-06-15","value":null,"phone":"407-896-0401","sourceLabel":"FDACS Division of Food Safety","lat":28.555405000000064,"lng":-81.34515699999997},{"id":"lic_FDACS56458","signalType":"retail_food","businessName":"Target # 0665","category":"Retail Food","detail":"Retail Food establishment · 941-925-3377","city":"Sarasota","county":"Sarasota","date":"2026-06-15","value":null,"phone":"941-925-3377","sourceLabel":"FDACS Division of Food Safety","lat":27.22854200000006,"lng":-82.49272299999996},{"id":"lic_FDACS56481","signalType":"retail_food","businessName":"Target # 0654","category":"Retail Food","detail":"Retail Food establishment · 612-761-1913","city":"Largo","county":"Pinellas","date":"2026-06-15","value":null,"phone":"612-761-1913","sourceLabel":"FDACS Division of Food Safety","lat":27.894000000000062,"lng":-82.78581099999997},{"id":"lic_FDACS56482","signalType":"retail_food","businessName":"M And M Food Store","category":"Retail Food","detail":"Retail Food establishment · 813-716-5721","city":"Plant City","county":"Hillsborough","date":"2026-06-15","value":null,"phone":"813-716-5721","sourceLabel":"FDACS Division of Food Safety","lat":28.046853000000056,"lng":-82.16276699999997},{"id":"lic_FDACS56504","signalType":"retail_food","businessName":"International Market And Wine Depot","category":"Retail Food","detail":"Retail Food establishment · 954-523-1400","city":"Fort Lauderdale","county":"Broward","date":"2026-06-15","value":null,"phone":"954-523-1400","sourceLabel":"FDACS Division of Food Safety","lat":26.100266000000033,"lng":-80.12817299999995},{"id":"lic_FDACS56520","signalType":"retail_food","businessName":"Walgreens # 2542","category":"Retail Food","detail":"Retail Food establishment · 239-535-2484","city":"Naples","county":"Collier","date":"2026-06-15","value":null,"phone":"239-535-2484","sourceLabel":"FDACS Division of Food Safety","lat":26.156787000000065,"lng":-81.72114399999998},{"id":"lic_FDACS56533","signalType":"retail_food","businessName":"Hola Fuel INC","category":"Retail Food","detail":"Retail Food establishment · 561-641-3839","city":"Lake Worth","county":"Palm Beach","date":"2026-06-15","value":null,"phone":"561-641-3839","sourceLabel":"FDACS Division of Food Safety","lat":26.60785000000004,"lng":-80.11448099999996},{"id":"lic_FDACS56535","signalType":"retail_food","businessName":"Tri County Discount Food","category":"Retail Food","detail":"Retail Food establishment · 561-433-0728","city":"Lake Worth","county":"Palm Beach","date":"2026-06-15","value":null,"phone":"561-433-0728","sourceLabel":"FDACS Division of Food Safety","lat":26.590490000000045,"lng":-80.11500099999995},{"id":"lic_FDACS10703","signalType":"retail_food","businessName":"Dollar General # 1350","category":"Retail Food","detail":"Retail Food establishment · 615-855-4000","city":"Daytona Beach","county":"Volusia","date":"2026-06-15","value":null,"phone":"615-855-4000","sourceLabel":"FDACS Division of Food Safety","lat":29.22141000000005,"lng":-81.04888999999997},{"id":"lic_FDACS56590","signalType":"retail_food","businessName":"Kendall Exxon","category":"Retail Food","detail":"Retail Food establishment · 305-382-4738","city":"Miami","county":"Miami-Dade","date":"2026-06-15","value":null,"phone":"305-382-4738","sourceLabel":"FDACS Division of Food Safety","lat":25.688427000000047,"lng":-80.31600099999997},{"id":"lic_FDACS56591","signalType":"retail_food","businessName":"Fleetwing Corporation # 0001","category":"Retail Food","detail":"Retail Food establishment · 863-665-7557","city":"Lakeland","county":"Polk","date":"2026-06-15","value":null,"phone":"863-665-7557","sourceLabel":"FDACS Division of Food Safety","lat":28.034330000000068,"lng":-81.90762999999998},{"id":"lic_FDACS56599","signalType":"retail_food","businessName":"Plaza Seafood Market And Grocery","category":"Retail Food","detail":"Retail Food establishment · 786-402-6711","city":"Miami","county":"Miami-Dade","date":"2026-06-15","value":null,"phone":"786-402-6711","sourceLabel":"FDACS Division of Food Safety","lat":25.805581000000075,"lng":-80.22397399999994},{"id":"lic_FDACS56607","signalType":"retail_food","businessName":"Walgreens Liquor # 2128","category":"Retail Food","detail":"Retail Food establishment · 305-531-8668","city":"Miami Beach","county":"Miami-Dade","date":"2026-06-15","value":null,"phone":"305-531-8668","sourceLabel":"FDACS Division of Food Safety","lat":25.794488000000058,"lng":-80.14090699999997},{"id":"lic_FDACS56626","signalType":"retail_food","businessName":"Hammocks Shell","category":"Retail Food","detail":"Retail Food establishment · 305-385-2945","city":"Miami","county":"Miami-Dade","date":"2026-06-15","value":null,"phone":"305-385-2945","sourceLabel":"FDACS Division of Food Safety","lat":25.670724000000064,"lng":-80.43151399999994},{"id":"lic_FDACS56639","signalType":"retail_food","businessName":"Sunny Mobil","category":"Retail Food","detail":"Retail Food establishment · 305-496-8683","city":"Miami","county":"Miami-Dade","date":"2026-06-15","value":null,"phone":"305-496-8683","sourceLabel":"FDACS Division of Food Safety","lat":25.76052800000008,"lng":-80.38895199999996},{"id":"lic_FDACS56640","signalType":"retail_food","businessName":"Shell Food Mart College Park","category":"Retail Food","detail":"Retail Food establishment · 306-271-3672","city":"Miami ","county":"Miami-Dade","date":"2026-06-15","value":null,"phone":"306-271-3672","sourceLabel":"FDACS Division of Food Safety","lat":25.67185900000004,"lng":-80.37241599999999},{"id":"lic_FDACS56643","signalType":"retail_food","businessName":"H & H Discount Beverage","category":"Retail Food","detail":"Retail Food establishment · 904-284-0949","city":"Green Cove Springs","county":"Clay","date":"2026-06-15","value":null,"phone":"904-284-0949","sourceLabel":"FDACS Division of Food Safety","lat":29.994481000000064,"lng":-81.67939899999999},